시설번호,지역코드,시설일련번호,시도명,시군구명,수용시설명,도로명주소코드,법정동코드,행정동코드,상세주소,시설면적,경도,위도,X좌표,Y좌표
510,1114000000,3,서울특별시,중구,남산초등학교,1.11401E+24,1114012900,1114055000,서울특별시 중구 퇴계로22길 17(남산동2가),245,126.986414,37.55986,198799.5833,551147.8935
511,1114000000,4,서울특별시,중구,덕수중학교,1.11401E+24,1114013400,1114059000,서울특별시 중구 마른내로9길 10(인현동2가),756,126.997407,37.56546,199770.8822,551769.3539
512,1114000000,57,서울특별시,중구,회현체육센터,1.11401E+24,1114012100,1114054000,서울특별시 중구 퇴계로12길 78(회현동1가),701,126.981631,37.556094,198376.9032,550730.0717
513,1114000000,52,서울특별시,중구,충무교회,1.11401E+24,1114012300,1114055000,서울특별시 중구 퇴계로16길 20(회현동3가),598,126.984422,37.560012,198623.5727,551164.882
520,1111000000,370,서울특별시,종로구,아름꿈도서관,1.11102E+24,1111017500,1111071000,서울특별시 종로구 종로58가길 19(숭인동),639,127.017131,37.572687,201513.3043,552571.5981
521,1114000000,17,서울특별시,중구,덕수초등학교,1.11402E+24,1114016700,1114052000,서울특별시 중구 덕수궁길 140(정동),897,126.974851,37.568986,197778.2775,552161.0405
522,1111000000,26,서울특별시,종로구,숭인1동주민센터,1.11102E+24,1111017500,1111070000,서울특별시 종로구 지봉로 86(숭인동),770,127.015633,37.577836,201380.9126,553143.1023
523,1111000000,343,서울특별시,종로구,숭인상록경로당,1.11102E+24,1111017500,1111070000,서울특별시 종로구 지봉로 86(숭인동),244,127.015593,37.577808,201377.4142,553139.9574
524,1111000000,340,서울특별시,종로구,숭인2동주민센터,1.11102E+24,1111017500,1111071000,서울특별시 종로구 종로65길 10(숭인동),256,127.019986,37.574886,201765.5142,552815.7936
1,1147000000,355,서울특별시,양천구,목3동주민센터,1.14701E+24,1147010200,1147053000,서울특별시 양천구 목동중앙남로16나길 55(목동),125,126.864403,37.544784,188016.9633,549483.2542
6,1147000000,316,서울특별시,양천구,양동중학교,1.14701E+24,1147010200,1147053000,서울특별시 양천구 목동중앙북로 49(목동),1028,126.869351,37.547894,188454.7215,549827.8244
7,1147000000,357,서울특별시,양천구,목동보건지소,1.14701E+24,1147010200,1147053000,서울특별시 양천구 목동중앙본로7가길 11(목동),650,126.866975,37.5401,188243.486,548963.0111
8,1147000000,391,서울특별시,양천구,갈산문화예술센터,1.14701E+24,1147010100,1147068000,서울특별시 양천구 목동남로 106(신정동),168,126.870713,37.510419,188569.3248,545668.3356
9,1147000000,354,서울특별시,양천구,목2동주민센터,1.14701E+24,1147010200,1147052000,서울특별시 양천구 목동중앙본로 120(목동),281,126.871644,37.546126,188657.0492,549631.2764
10,1147000000,327,서울특별시,양천구,갈산초등학교,1.14701E+24,1147010100,1147068000,서울특별시 양천구 목동로 31(신정동),660,126.869629,37.51145,188473.6196,545782.9257
11,1147000000,347,서울특별시,양천구,양천어르신종합복지관,1.14701E+24,1147010100,1147068000,서울특별시 양천구 목동로3길 106(신정동),160,126.858616,37.510433,187499.8092,545671.4176
12,1147000000,350,서울특별시,양천구,양천구민체육센터,1.14701E+24,1147010100,1147067000,서울특별시 양천구 목동동로 87(신정동),1995,126.864385,37.516544,188010.8453,546348.9906
13,1147000000,328,서울특별시,양천구,계남초등학교 체육관,1.14701E+24,1147010100,1147068000,서울특별시 양천구 목동동로2길 54(신정동),983,126.860935,37.509799,187704.7522,545600.7428
14,1147000000,348,서울특별시,양천구,양천구청 본관,1.14701E+24,1147010100,1147067000,서울특별시 양천구 목동동로 105(신정동),396,126.866631,37.516984,188209.4302,546397.4847
15,1147000000,349,서울특별시,양천구,해누리타운(양천구청 별관),1.14701E+24,1147010100,1147067000,서울특별시 양천구 목동동로 81(신정동),350,126.86382,37.516035,187960.8389,546292.5724
16,1147000000,32,서울특별시,양천구,목일중학교,1.14701E+24,1147010100,1147067000,서울특별시 양천구 목동동로8길 70(신정동),644,126.874308,37.513309,188887.5855,545988.6694
17,1147000000,326,서울특별시,양천구,신목고등학교,1.14701E+24,1147010100,1147067000,서울특별시 양천구 안양천로 739(신정동),415,126.873736,37.512605,188836.951,545910.6208
18,1147000000,340,서울특별시,양천구,신서고등학교,1.14701E+24,1147010100,1147065000,서울특별시 양천구 은행정로 42(신정동),844,126.859937,37.523831,187618.7921,547158.2861
19,1147000000,367,서울특별시,양천구,신정4동주민센터,1.14701E+24,1147010100,1147065000,서울특별시 양천구 오목로34길 5(신정동),144,126.855824,37.52464,187255.3503,547248.6044
23,1147000000,373,서울특별시,양천구,서울장수초등학교,1.14701E+24,1147010100,1147064000,서울특별시 양천구 신정로13가길 30(신정동),478,126.844938,37.512778,186290.9195,545933.619
24,1147000000,29,서울특별시,양천구,양목초등학교,1.14701E+24,1147010100,1147065000,서울특별시 양천구 목동로11길 30(신정동),2986,126.86123,37.52369,187733.1005,547142.4952
26,1147000000,385,서울특별시,양천구,서울지향초등학교,1.14701E+24,1147010100,1147064000,서울특별시 양천구 신정로11길 74(신정동),650,126.837162,37.513239,185603.5124,545985.9512
27,1147000000,372,서울특별시,양천구,서울신은초등학교,1.14701E+24,1147010100,1147064000,서울특별시 양천구 신정이펜2로 30(신정동),650,126.831893,37.514078,185137.8353,546079.8656
28,1147000000,325,서울특별시,양천구,금옥중학교 체육관,1.14701E+24,1147010100,1147064000,서울특별시 양천구 신정로 213(신정동),621,126.843845,37.510652,186193.8644,545697.8386
29,1147000000,346,서울특별시,양천구,신정3동넒은들민원센터,1.14701E+24,1147010100,1147064000,서울특별시 양천구 남부순환로88길 5-7 (신정동),372,126.841522,37.511437,185988.6683,545785.2338
30,1147000000,335,서울특별시,양천구,신목초등학교 체육관,1.14701E+24,1147010100,1147063000,서울특별시 양천구 신목로5길 11-6 (신정동),661,126.873275,37.516979,188796.7838,546396.0868
31,1147000000,324,서울특별시,양천구,남명초등학교,1.14701E+24,1147010100,1147064000,서울특별시 양천구 중앙로23길 3(신정동),577,126.853923,37.515394,187085.7328,546222.6421
32,1147000000,12,서울특별시,양천구,목동초등학교 체육관,1.14701E+24,1147010100,1147063000,서울특별시 양천구 목동동로12길 12(신정동),810,126.872085,37.522482,188692.4066,547007.0699
33,1147000000,323,서울특별시,양천구,목동중학교 체육관,1.14701E+24,1147010100,1147063000,서울특별시 양천구 목동동로 172(신정동),620,126.870889,37.520104,188586.3297,546743.2627
35,1147000000,333,서울특별시,양천구,신정종합사회복지관,1.14701E+24,1147010100,1147062000,서울특별시 양천구 신정중앙로 36(신정동),238,126.860493,37.526495,187668.361,547453.8408
36,1147000000,365,서울특별시,양천구,신정1동주민센터,1.14701E+24,1147010100,1147062000,서울특별시 양천구 중앙로32길 1(신정동),140,126.854215,37.518586,187112.0994,546576.8973
38,1147000000,24,서울특별시,양천구,신서중학교 체육관,1.14701E+24,1147010100,1147062000,서울특별시 양천구 중앙로 206(신정동),860,126.856161,37.515658,187283.6051,546251.6912
39,1147000000,322,서울특별시,양천구,신서초등학교 체육관,1.14701E+24,1147010100,1147062000,서울특별시 양천구 목동서로10길 35(신정동),793,126.862415,37.520276,187837.2603,546763.4166
41,1147000000,383,서울특별시,양천구,양천중학교,1.14701E+24,1147010300,1147061100,서울특별시 양천구 지양로7길 32(신월동),970,126.830616,37.519523,185026.0023,546684.4471
42,1147000000,389,서울특별시,양천구,지양경로당,1.14701E+24,1147010300,1147061100,서울특별시 양천구 지양로17길 15(신월동),146,126.828219,37.522655,184814.7353,547032.4288
44,1153000000,353,서울특별시,구로구,구일중학교,1.15301E+24,1153010200,1153052000,서울특별시 구로구 구일로 90-133 (구로동),865,126.873722,37.4951,188833.062,543967.7376
45,1147000000,22,서울특별시,양천구,강월초등학교 체육관,1.14701E+24,1147010300,1147061100,서울특별시 양천구 신월로 97(신월동),796,126.834725,37.515897,185388.6128,546281.3325
46,1153000000,374,서울특별시,구로구,신미림초등학교,1.15301E+24,1153010100,1153051000,서울특별시 구로구 신도림로 26(신도림동),495,126.879277,37.50916,189326.3119,545527.6311
47,1153000000,302,서울특별시,구로구,구일고등학교,1.15301E+24,1153010200,1153052000,서울특별시 구로구 구일로 90-51 (구로동),298,126.878275,37.494012,189235.5318,543846.5033
48,1153000000,355,서울특별시,구로구,신도림중학교,1.15301E+24,1153010100,1153051000,서울특별시 구로구 경인로63길 74(신도림동),828,126.885414,37.510927,189869.1606,545723.1005
49,1153000000,354,서울특별시,구로구,신도림고등학교,1.15301E+24,1153010100,1153051000,서울특별시 구로구 경인로67길 159(신도림동),560,126.882048,37.514242,189572.0214,546091.3435
50,1150000000,419,서울특별시,강서구,삼정초등학교,1.15001E+24,1150010900,1150064100,서울특별시 강서구 금낭화로 222(방화동),540,126.810278,37.580104,183241.7034,553411.6473
51,1150000000,420,서울특별시,강서구,삼정중학교,1.15001E+24,1150010900,1150064100,서울특별시 강서구 금낭화로 210(방화동),260,126.810746,37.581225,183283.3018,553535.9833
52,1150000000,428,서울특별시,강서구,송화초등학교,1.15001E+24,1150010900,1150063000,서울특별시 강서구 방화대로34길 2(마곡동),1726,126.817541,37.5685,183880.7249,552122.4328
53,1150000000,421,서울특별시,강서구,방원중학교,1.15001E+24,1150010900,1150064100,서울특별시 강서구 금낭화로 268(방화동),1103,126.808814,37.575758,183111.368,552929.5328
56,1150000000,426,서울특별시,강서구,송정초등학교 체육관,1.15001E+24,1150010800,1150062000,서울특별시 강서구 공항대로3길 18(공항동),618,126.810892,37.562181,183291.9095,551422.2583
57,1150000000,427,서울특별시,강서구,송정중학교,1.15001E+24,1150010800,1150062000,서울특별시 강서구 남부순환로 121(공항동),869,126.815248,37.553596,183674.8988,550468.6585
59,1150000000,418,서울특별시,강서구,발산초등학교,1.15001E+24,1150010600,1150061100,서울특별시 강서구 강서로45길 113(내발산동),4292,126.830947,37.549937,185061.3446,550059.9268
60,1150000000,335,서울특별시,강서구,내발산초등학교,1.15001E+24,1150010600,1150061500,서울특별시 강서구 강서로46길 23(내발산동),2475,126.837868,37.551268,185673.1997,550206.5636
61,1150000000,331,서울특별시,강서구,양천초등학교,1.15001E+24,1150010400,1150060300,서울특별시 강서구 양천로 329(가양동),2182,126.83946,37.570024,185817.4777,552288.0396
62,1150000000,334,서울특별시,강서구,가곡초등학교,1.15001E+24,1150010500,1150061100,서울특별시 강서구 공항대로36길 74(마곡동),1650,126.835822,37.555284,185493.1922,550652.6325
67,1150000000,416,서울특별시,강서구,화일초등학교,1.15001E+24,1150010300,1150059000,서울특별시 강서구 까치산로10길 70(화곡동),573,126.847534,37.540593,186525.4132,549020.3553
68,1150000000,327,서울특별시,강서구,우장초등학교,1.15001E+24,1150010300,1150059100,서울특별시 강서구 화곡로 263(화곡동),804,126.846285,37.549079,186416.5384,549962.4279
69,1150000000,324,서울특별시,강서구,신정초등학교,1.15001E+24,1150010300,1150055000,서울특별시 강서구 곰달래로31가길 27(화곡동),746,126.852548,37.532725,186967.149,548146.392
70,1150000000,322,서울특별시,강서구,화곡초등학교,1.15001E+24,1150010300,1150059000,서울특별시 강서구 초록마을로 28(화곡동),3630,126.84595,37.543209,186385.9278,549310.8934
75,1150000000,423,서울특별시,강서구,등마초등학교,1.15001E+24,1150010200,1150053000,서울특별시 강서구 등촌로35길 12(등촌동),649,126.861622,37.541924,187770.7052,549166.1635
76,1150000000,330,서울특별시,강서구,화원중학교,1.15001E+24,1150010300,1150054000,서울특별시 강서구 강서로17나길 86(화곡동),1650,126.842567,37.536716,186085.7317,548590.7875
78,1150000000,429,서울특별시,강서구,백석중학교,1.15001E+24,1150010200,1150053000,서울특별시 강서구 등촌로51나길 35(등촌동),600,126.859303,37.54819,187566.7974,549861.9061
79,1150000000,414,서울특별시,강서구,등촌중학교,1.15001E+24,1150010200,1150053000,서울특별시 강서구 공항대로 484-12 (등촌동),2311,126.859403,37.552463,187576.3435,550336.1249
80,1150000000,432,서울특별시,강서구,JK블라썸 호텔,1.15001E+24,1150010100,1150051000,서울특별시 강서구 양천로65길 41-22 (염창동),8284,126.867609,37.556842,188302.1566,550821.148
81,1150000000,319,서울특별시,강서구,백석초등학교,1.15001E+24,1150010200,1150052000,서울특별시 강서구 공항대로 491(등촌동),2145,126.862035,37.553252,187809.0619,550423.4232
82,1150000000,340,서울특별시,강서구,염경초등학교,1.15001E+24,1150010100,1150051000,서울특별시 강서구 양천로69길 49(염창동),843,126.871235,37.554774,188622.1918,550591.1361
83,1150000000,422,서울특별시,강서구,염경중학교,1.15001E+24,1150010100,1150051000,서울특별시 강서구 양천로69길 35(염창동),690,126.870684,37.554496,188573.4882,550560.3649
85,1153000000,367,서울특별시,구로구,서울오정초등학교,1.15301E+24,1153010800,1153078000,서울특별시 구로구 경인로2길 10(오류동),750,126.82646,37.48971,184652.5368,543376.2547
86,1153000000,364,서울특별시,구로구,천왕중학교,1.15301E+24,1153011100,1153078000,서울특별시 구로구 천왕로 63(천왕동),754,121.169846,36.146513,-324971.2759,410088.0103
88,1153000000,319,서울특별시,구로구,오류초등학교,1.15301E+24,1153010800,1153077000,서울특별시 구로구 경인로19길 39(오류동),899,126.842121,37.497806,186039.022,544272.3267
89,1153000000,375,서울특별시,구로구,코업시티호텔,1.15301E+24,1153010800,1153077000,서울특별시 구로구 경인로20가길 19(오류동),130,126.84473,37.49582,186269.4497,544051.5679
91,1153000000,347,서울특별시,구로구,개봉초등학교,1.15301E+24,1153010700,1153076000,서울특별시 구로구 개봉로16길 30-11 (개봉동),534,126.858344,37.489462,187472.2418,543343.9728
92,1153000000,372,서울특별시,구로구,개웅산생활체육관,1.15301E+24,1153010700,1153076000,서울특별시 구로구 개봉로3길 108-20 (개봉동),1072,126.849657,37.485261,186703.2749,542878.9016
93,1153000000,379,서울특별시,구로구,개봉2동주민센터,1.15301E+24,1153010700,1153075000,서울특별시 구로구 개봉로16가길 17(개봉동),187,126.856456,37.490839,187305.4642,543497.026
94,1153000000,333,서울특별시,구로구,개명초등학교,1.15301E+24,1153010700,1153076000,서울특별시 구로구 개봉로1다길 16-9 (개봉동),715,126.850698,37.483005,186794.878,542628.4055
95,1153000000,316,서울특별시,구로구,매봉초등학교,1.15301E+24,1153010700,1153074000,서울특별시 구로구 고척로21길 55(개봉동),110,126.844575,37.504402,186257.2743,545004.0723
96,1153000000,341,서울특별시,구로구,경인중학교,1.15301E+24,1153010700,1153074000,서울특별시 구로구 경인로 301(개봉동),858,126.854658,37.498382,187147.7882,544334.4739
97,1153000000,16,서울특별시,구로구,세곡초등학교,1.15301E+24,1153010600,1153073000,서울특별시 구로구 고척로33길 34(고척동),720,126.849119,37.504817,186659.1337,545049.4837
98,1153000000,371,서울특별시,구로구,구로구민체육센터,1.15301E+24,1153010600,1153073000,서울특별시 구로구 고척로45길 39(고척동),5264,126.852536,37.506133,186961.4551,545195.0174
100,1153000000,350,서울특별시,구로구,고원초등학교,1.15301E+24,1153010600,1153072000,서울특별시 구로구 경인로46길 13(고척동),713,126.865797,37.497566,188132.6521,544242.4457
101,1153000000,363,서울특별시,구로구,서울고척초등학교,1.15301E+24,1153010600,1153072000,서울특별시 구로구 경서로 31(고척동),552,126.857191,37.500949,187372.2213,544619.0083
103,1153000000,348,서울특별시,구로구,고척중학교,1.15301E+24,1153010600,1153072000,서울특별시 구로구 중앙로3길 20(고척동),1046,126.862068,37.500226,187803.3353,544538.1481
104,1153000000,349,서울특별시,구로구,고산초등학교,1.15301E+24,1153010600,1153072000,서울특별시 구로구 중앙로 6(고척동),612,126.865397,37.499342,188097.5626,544439.6093
113,1153000000,377,서울특별시,구로구,제이에스호스텔,1.15301E+24,1153010300,1153059500,서울특별시 구로구 남부순환로105길 32(가리봉동),55,126.891042,37.479498,190362.7452,542234.2701
114,1153000000,365,서울특별시,구로구,구로구민회관,1.15301E+24,1153010200,1153056000,서울특별시 구로구 가마산로25길 21(구로동),151,126.889365,37.496926,190216.6847,544168.7278
115,1153000000,362,서울특별시,구로구,서울영일초등학교,1.15301E+24,1153010300,1153059500,서울특별시 구로구 남부순환로105길 218(가리봉동),641,126.883437,37.484688,189690.7366,542811.0326
116,1153000000,10,서울특별시,구로구,구로중학교,1.15301E+24,1153010200,1153055000,서울특별시 구로구 구로중앙로 48(구로동),1530,126.886825,37.500538,189992.5134,544569.8291
117,1153000000,11,서울특별시,구로구,동구로초등학교,1.15301E+24,1153010200,1153055000,서울특별시 구로구 구로중앙로14길 43(구로동),752,126.892536,37.494815,190496.7763,543934.0339
118,1153000000,366,서울특별시,구로구,구로3동주민센터,1.15301E+24,1153010200,1153054000,서울특별시 구로구 디지털로31길 109(구로동),173,126.890325,37.487346,190300.291,543105.3924
119,1153000000,376,서울특별시,구로구,롯데시티호텔 구로,1.15301E+24,1153010200,1153054000,서울특별시 구로구 디지털로 300(구로동),132,126.896261,37.485064,190825.01,542851.4666
121,1153000000,9,서울특별시,구로구,구로초등학교,1.15301E+24,1153010200,1153053000,서울특별시 구로구 구로중앙로27나길 9(구로동),1357,126.886063,37.496888,189924.6538,544164.7976
122,1153000000,369,서울특별시,구로구,화원종합사회복지관,1.15301E+24,1153010200,1153053000,서울특별시 구로구 벚꽃로 484(구로동),220,126.880139,37.497347,189400.837,544216.4623
123,1153000000,368,서울특별시,구로구,구현고등학교,1.15301E+24,1153010200,1153053000,서울특별시 구로구 경인로53가길 17(구로동),799,126.874535,37.502237,188906.0153,544759.7873
124,1154500000,353,서울특별시,금천구,시흥4동주민센터,1.15451E+24,1154510300,1154570000,서울특별시 금천구 독산로36길 14(시흥동),132,126.906175,37.458948,191698.9118,539952.0875
125,1154500000,356,서울특별시,금천구,시흥5동주민센터,1.15451E+24,1154510300,1154571000,서울특별시 금천구 금하로24길 6(시흥동),165,126.908302,37.452352,191886.3779,539219.8281
126,1153000000,352,서울특별시,구로구,구일초등학교,1.15301E+24,1153010200,1153052000,서울특별시 구로구 구일로 68(구로동),653,126.872936,37.492747,188763.2203,543706.7231
131,1154500000,351,서울특별시,금천구,시흥3동주민센터,1.15451E+24,1154510300,1154569000,서울특별시 금천구 시흥대로18길 40(시흥동),198,126.905828,37.440277,191666.1439,537879.8595
132,1154500000,352,서울특별시,금천구,남부여성발전센터,1.15451E+24,1154510300,1154570000,서울특별시 금천구 독산로50길 23(시흥동),231,126.906036,37.46326,191687.0886,540430.664
134,1154500000,346,서울특별시,금천구,금천종합복지타운,1.15451E+24,1154510300,1154568000,서울특별시 금천구 금하로 764(시흥동),473,126.914474,37.449673,192432.2316,538921.8894
135,1154500000,350,서울특별시,금천구,금천문화원,1.15451E+24,1154510300,1154569000,서울특별시 금천구 시흥대로38길 61(시흥동),198,126.904543,37.447408,191553.2549,538671.4019
136,1154500000,321,서울특별시,금천구,탑동초등학교,1.15451E+24,1154510300,1154568000,서울특별시 금천구 탑골로 47-3 (시흥동),900,126.914528,37.452725,192437.3613,539260.7057
137,1154500000,347,서울특별시,금천구,청담종합사회복지관,1.15451E+24,1154510300,1154568000,서울특별시 금천구 금하로29길 36(시흥동),198,126.913746,37.45129,192368.0002,539101.4371
139,1154500000,344,서울특별시,금천구,시흥1동주민센터,1.15451E+24,1154510300,1154567000,서울특별시 금천구 시흥대로58길 36(시흥동),314,126.903269,37.453569,191441.2628,539355.3124
142,1154500000,315,서울특별시,금천구,문백초등학교,1.15451E+24,1154510300,1154567000,서울특별시 금천구 시흥대로47길 43-1 (시흥동),900,126.899272,37.44709,191086.7759,538636.585
143,1154500000,345,서울특별시,금천구,금천노인종합복지관,1.15451E+24,1154510300,1154567000,서울특별시 금천구 시흥대로51길 93-32 (시흥동),268,126.897819,37.450166,190958.5998,538978.1489
145,1154500000,10,서울특별시,금천구,정심초등학교,1.15451E+24,1154510200,1154564000,서울특별시 금천구 독산로78다길 89(독산동),500,126.90846,37.471646,191902.5088,541361.1786
146,1154500000,343,서울특별시,금천구,독산4동주민센터,1.15451E+24,1154510200,1154564000,서울특별시 금천구 독산로 232(독산동),181,126.902134,37.467578,191342.3805,540910.2638
147,1154500000,337,서울특별시,금천구,독산2동주민센터,1.15451E+24,1154510200,1154562000,서울특별시 금천구 독산로 179(독산동),174,126.903521,37.463168,191464.6402,540420.6481
148,1154500000,340,서울특별시,금천구,독산3동주민센터,1.15451E+24,1154510200,1154563000,서울특별시 금천구 독산로 317(독산동),206,126.903178,37.475145,191435.5937,541749.9136
149,1154500000,362,서울특별시,금천구,독산어르신체육센터,1.15451E+24,1154510200,1154563000,서울특별시 금천구 독산로54길 279(독산동),438,126.905802,37.474353,191667.6147,541661.7968
150,1111000000,334,서울특별시,종로구,무악동주민센터,1.11102E+24,1111018700,1111057000,서울특별시 종로구 통일로14길 36(무악동),364,126.958198,37.576,196307.4244,552940.0073
151,1111000000,365,서울특별시,종로구,종로노인복지관 무악센터,1.11102E+24,1111018700,1111057000,서울특별시 종로구 통일로14길 30(무악동),797,126.958034,37.575829,196292.8697,552921.0436
152,1111000000,320,서울특별시,종로구,독립문초등학교,1.11102E+24,1111018700,1111057000,서울특별시 종로구 통일로12길 23(무악동),608,126.959981,37.574285,196464.8248,552749.5691
153,1154500000,335,서울특별시,금천구,금천어르신복지센터,1.15451E+24,1154510200,1154561000,서울특별시 금천구 범안로17길 22(독산동),113,126.886851,37.45794,189989.1437,539842.0481
154,1154500000,334,서울특별시,금천구,독산1동주민센터,1.15451E+24,1154510200,1154561000,서울특별시 금천구 시흥대로123길 11(독산동),303,126.897043,37.470228,190892.3828,541204.8281
155,1154500000,361,서울특별시,금천구,금나래문화체육센터,1.15451E+24,1154510200,1154561000,서울특별시 금천구 시흥대로79길 32(독산동),1567,126.895998,37.458838,190798.5396,539940.7755
156,1153000000,373,서울특별시,구로구,온수어르신복지관,1.15301E+24,1153011000,1153079000,서울특별시 구로구 부일로9길 111(온수동),258,126.823286,37.496673,184373.2793,544149.5797
157,1154500000,331,서울특별시,금천구,가산동주민센터,1.15451E+24,1154510100,1154551000,서울특별시 금천구 가산로 129(가산동),135,126.891763,37.476873,190426.1471,541942.8843
158,1154500000,7,서울특별시,금천구,안천중학교,1.15451E+24,1154510200,1154561000,서울특별시 금천구 한내로 69-44 (독산동),900,126.887722,37.459219,190066.3357,539983.8497
159,1153000000,359,서울특별시,구로구,서울정진학교,1.15301E+24,1153010900,1153079000,서울특별시 구로구 부일로9길 158(궁동),776,126.820767,37.498835,184151.0169,544389.9583
160,1153000000,358,서울특별시,구로구,세종과학고등학교,1.15301E+24,1153010900,1153079000,서울특별시 구로구 오리로21길 79(궁동),670,126.82755,37.49748,184750.527,544238.4191
161,1153000000,370,서울특별시,구로구,궁동종합사회복지관,1.15301E+24,1153010900,1153079000,서울특별시 구로구 오리로22길 5(궁동),137,126.82963,37.499018,184934.7106,544408.7325
162,1156000000,445,서울특별시,영등포구,구립문래제1경로당,1.15601E+24,1156012100,1156060500,서울특별시 영등포구 문래로20길 7(문래동3가),201,126.894195,37.518462,190646.4768,546558.4688
163,1153000000,361,서울특별시,구로구,서울천왕초등학교,1.15301E+24,1153011100,1153078000,서울특별시 구로구 천왕로1길 11(천왕동),759,126.836761,37.481579,185562.011,542472.1463
164,1153000000,343,서울특별시,구로구,유한공업고등학교,1.15301E+24,1153011200,1153078000,서울특별시 구로구 경인로 8(항동),858,126.823975,37.488094,184432.4338,543197.2711
165,1111000000,304,서울특별시,종로구,세검정초등학교,1.11102E+24,1111018600,1111055000,서울특별시 종로구 세검정로9길 1(신영동),470,126.96096,37.603174,196552.6075,555955.9013
166,1111000000,333,서울특별시,종로구,평창동주민센터,1.11102E+24,1111018300,1111056000,서울특별시 종로구 평창문화로 65(평창동),108,126.968398,37.606371,197209.5682,556310.4717
167,1111000000,335,서울특별시,종로구,삼청동주민센터,1.11101E+24,1111014000,1111054000,서울특별시 종로구 삼청로 107(삼청동),155,126.981776,37.584975,198390.3741,553935.4421
168,1156000000,473,서울특별시,영등포구,다목적배드민턴체육관,1.15601E+24,1156011800,1156058500,서울특별시 영등포구 도신로15길 5(도림동),1650,126.897329,37.506738,190922.0611,545256.9466
169,1156000000,409,서울특별시,영등포구,서울영등포초등학교,1.15601E+24,1156011900,1156060500,서울특별시 영등포구 경인로 756(문래동1가),710,126.898161,37.512938,190996.3533,545944.9988
170,1156000000,407,서울특별시,영등포구,서울문래초등학교,1.15601E+24,1156012100,1156060500,서울특별시 영등포구 문래로 104(문래동3가),225,126.893203,37.518218,190558.7283,546531.4582
171,1111000000,358,서울특별시,종로구,매동초등학교,1.11101E+24,1111011300,1111053000,서울특별시 종로구 사직로9길 19(필운동),330,126.966316,37.577262,197024.5896,553079.7856
172,1111000000,331,서울특별시,종로구,종로문화체육센터,1.11101E+24,1111011500,1111053000,서울특별시 종로구 인왕산로1길 21(사직동),734,126.964625,37.574132,196875.0149,552732.4788
173,1156000000,399,서울특별시,영등포구,당산중학교,1.15601E+24,1156011700,1156056000,서울특별시 영등포구 버드나루로 160(당산동),540,126.907579,37.532113,191831.1755,548072.2268
174,1156000000,467,서울특별시,영등포구,도림동주민센터,1.15601E+24,1156011800,1156058500,서울특별시 영등포구 도영로7길 10(도림동),121,126.895888,37.509511,190795.0423,545564.8397
175,1156000000,444,서울특별시,영등포구,구립모랫말경로당,1.15601E+24,1156011800,1156058500,서울특별시 영등포구 도영로 41(도림동),176,126.897486,37.509707,190936.3361,545586.4259
176,1111000000,359,서울특별시,종로구,경기상업고등학교,1.11101E+24,1111010100,1111051500,서울특별시 종로구 자하문로 136(청운동),1157,126.970898,37.587992,197429.6805,554270.6157
177,1111000000,364,서울특별시,종로구,청운초등학교,1.11101E+24,1111010100,1111051500,서울특별시 종로구 자하문로 105(청운동),902,126.969419,37.585966,197298.984,554045.7409
178,1111000000,363,서울특별시,종로구,경복고등학교,1.11101E+24,1111010100,1111051500,서울특별시 종로구 자하문로28가길 9(청운동),1052,126.972439,37.58732,197565.7171,554195.9148
179,1111000000,362,서울특별시,종로구,청운중학교,1.11101E+24,1111010100,1111051500,서울특별시 종로구 창의문로 51(청운동),717,126.970971,37.58908,197436.1714,554391.3461
183,1156000000,472,서울특별시,영등포구,영등포제2스포츠센터,1.15601E+24,1156011400,1156056000,서울특별시 영등포구 국회대로 615(당산동4가),553,126.902818,37.526488,191409.6571,547448.4022
184,1156000000,443,서울특별시,영등포구,구립당산2동경로당,1.15601E+24,1156011600,1156056000,서울특별시 영등포구 당산로48길 16(당산동6가),122,126.904013,37.534943,191516.2671,548386.7266
185,1156000000,418,서울특별시,영등포구,서울영동초등학교,1.15601E+24,1156011700,1156056000,서울특별시 영등포구 국회대로53길 20(당산동),620,126.907652,37.526869,191837.0564,547490.2824
186,1156000000,442,서울특별시,영등포구,구립당산3가경로당,1.15601E+24,1156011300,1156055000,서울특별시 영등포구 당산로29길 9(당산동3가),132,126.89395,37.526029,190625.7699,547398.3179
187,1156000000,466,서울특별시,영등포구,당산1동주민센터,1.15601E+24,1156011300,1156055000,서울특별시 영등포구 양산로23길 11(당산동3가),175,126.897308,37.525013,190922.4437,547285.1586
188,1156000000,462,서울특별시,영등포구,당산2동주민센터,1.15601E+24,1156011400,1156056000,서울특별시 영등포구 당산로41가길 7(당산동4가),355,126.897263,37.531003,190919.1718,547950.0576
193,1156000000,417,서울특별시,영등포구,여의도고등학교,1.15601E+24,1156011000,1156054000,서울특별시 영등포구 국제금융로7길 37(여의도동),595,126.93412,37.525059,194176.5079,547287.3494
194,1156000000,426,서울특별시,영등포구,서울윤중초등학교,1.15601E+24,1156011000,1156054000,서울특별시 영등포구 여의나루로2길 14(여의도동),728,126.922893,37.519797,193183.5783,546704.1031
195,1156000000,463,서울특별시,영등포구,여의동주민센터,1.15601E+24,1156011000,1156054000,서울특별시 영등포구 국제금융로 124(여의도동),140,126.934514,37.517647,194210.7721,546464.7304
197,1156000000,458,서울특별시,영등포구,영등포동주민자치회관,1.15601E+24,1156010800,1156053500,서울특별시 영등포구 국회대로44길 4(영등포동7가),196,126.903608,37.525383,191479.4212,547325.719
198,1156000000,410,서울특별시,영등포구,서울영중초등학교,1.15601E+24,1156010800,1156053500,서울특별시 영등포구 양산로 185(영등포동7가),597,126.903964,37.523812,191510.6908,547151.2966
199,1156000000,474,서울특별시,영등포구,하이서울유스호스텔,1.15601E+24,1156010800,1156053500,서울특별시 영등포구 영신로 200(영등포동7가),9807,126.903438,37.525598,191464.3653,547349.5147
200,1156000000,440,서울특별시,영등포구,구립영등포본동경로당,1.15601E+24,1156010100,1156051500,서울특별시 영등포구 영신로9나길 7(영등포동),292,126.906682,37.512955,191749.7242,545946.0543
201,1156000000,419,서울특별시,영등포구,영등포여자고등학교,1.15601E+24,1156013200,1156051500,서울특별시 영등포구 영등포로62길 13(신길동),923,126.915565,37.515391,192535.3234,546215.631
202,1156000000,465,서울특별시,영등포구,영등포동주민센터,1.15601E+24,1156010300,1156053500,서울특별시 영등포구 영등포로53길 22(영등포동2가),336,126.910637,37.520314,192100.2189,546762.4499
203,1156000000,425,서울특별시,영등포구,서울영원초등학교,1.15601E+24,1156010100,1156051500,서울특별시 영등포구 도영로22길 31(영등포동),590,126.902334,37.510712,191365.0751,545697.5066
204,1156000000,464,서울특별시,영등포구,영등포본동주민센터,1.15601E+24,1156010100,1156051500,서울특별시 영등포구 신길로61길 17(영등포동),75,126.909393,37.514712,191989.592,546140.7982
205,1156000000,424,서울특별시,영등포구,영원중학교,1.15601E+24,1156010100,1156051500,서울특별시 영등포구 영등포로62길 31(영등포동),513,126.913732,37.515559,192373.2846,546234.4672
206,1156000000,403,서울특별시,영등포구,서울대방초등학교,1.15601E+24,1156013200,1156069000,서울특별시 영등포구 여의대방로35길 14(신길동),660,126.918942,37.502299,192832.6374,544762.3702
209,1156000000,471,서울특별시,영등포구,영등포구제1스포츠센터,1.15601E+24,1156013200,1156067000,서울특별시 영등포구 신풍로 1(신길동),651,126.906741,37.500618,191753.58,544576.8533
210,1156000000,436,서울특별시,영등포구,대림감리교회,1.15601E+24,1156013200,1156068000,서울특별시 영등포구 여의대방로 17(신길동),1100,126.909766,37.494076,192020.4049,543850.4122
211,1156000000,422,서울특별시,영등포구,영신고등학교,1.15601E+24,1156013200,1156068000,서울특별시 영등포구 대방천로14길 18(신길동),895,126.909747,37.49767,192019.0736,544249.3244
212,1156000000,452,서울특별시,영등포구,구립신길5동제2경로당,1.15601E+24,1156013200,1156067000,서울특별시 영등포구 도림로80길 6(신길동),168,126.905482,37.501739,191642.4065,544701.3787
213,1156000000,404,서울특별시,영등포구,서울대영초등학교,1.15601E+24,1156013200,1156067000,서울특별시 영등포구 신길로23길 43(신길동),180,126.906025,37.502352,191690.5112,544769.2835
214,1156000000,469,서울특별시,영등포구,신길4동주민센터,1.15601E+24,1156013200,1156066000,서울특별시 영등포구 신길로42길 1(신길동),184,126.9113,37.50845,192157.5577,545445.6462
215,1156000000,439,서울특별시,영등포구,신길교회,1.15601E+24,1156013200,1156063000,서울특별시 영등포구 영등포로67가길 9(신길동),631,126.919539,37.515105,192886.6473,546183.6618
216,1156000000,405,서울특별시,영등포구,서울도림초등학교,1.15601E+24,1156013200,1156065000,서울특별시 영등포구 가마산로65길 22(신길동),800,126.90678,37.508191,191757.9221,545417.289
217,1156000000,411,서울특별시,영등포구,서울우신초등학교,1.15601E+24,1156013200,1156066000,서울특별시 영등포구 신길로 190(신길동),633,126.911419,37.509572,192168.1928,545570.1385
218,1156000000,423,서울특별시,영등포구,서울영신초등학교,1.15601E+24,1156013200,1156063000,서울특별시 영등포구 도신로60길 23(신길동),390,126.917985,37.510033,192748.7747,545620.7929
219,1156000000,477,서울특별시,영등포구,양평2동주민센터,1.15601E+24,1156012800,1156062000,서울특별시 영등포구 선유로47길 30(양평동4가),570,126.893998,37.536458,190631.3218,548555.7792
220,1156000000,450,서울특별시,영등포구,구립율산경로당,1.15601E+24,1156013200,1156063000,서울특별시 영등포구 여의대방로61길 36-5 (신길동),198,126.922626,37.51573,193159.6347,546252.8044
221,1156000000,412,서울특별시,영등포구,선유고등학교,1.15601E+24,1156012800,1156062000,서울특별시 영등포구 선유로 227(양평동4가),730,126.894816,37.533865,190703.265,548267.9434
222,1156000000,428,서울특별시,영등포구,한강미디어고등학교,1.15601E+24,1156012800,1156062000,서울특별시 영등포구 선유로55길 22(양평동4가),721,126.897257,37.539169,190919.6475,548856.3452
223,1156000000,413,서울특별시,영등포구,선유중학교,1.15601E+24,1156012700,1156062000,서울특별시 영등포구 선유로 213(양평동3가),540,126.894588,37.533014,190683.0355,548173.4421
224,1156000000,459,서울특별시,영등포구,선유정보문화도서관,1.15601E+24,1156012700,1156062000,서울특별시 영등포구 선유로43가길 10-8 (양평동3가),137,126.892988,37.533329,190541.5995,548208.6596
225,1156000000,400,서울특별시,영등포구,당산초등학교,1.15601E+24,1156012800,1156062000,서울특별시 영등포구 선유로55길 32(양평동4가),369,126.89677,37.539697,190876.6853,548914.975
226,1156000000,434,서울특별시,영등포구,영은교회,1.15601E+24,1156012700,1156061000,서울특별시 영등포구 양산로 61(양평동3가),732,126.889994,37.525344,190275.9886,547322.6797
227,1156000000,401,서울특별시,영등포구,서울당중초등학교,1.15601E+24,1156012700,1156061000,서울특별시 영등포구 선유로 131(양평동3가),558,126.889988,37.526567,190275.5604,547458.4226
228,1156000000,398,서울특별시,영등포구,관악고등학교,1.15601E+24,1156012600,1156061000,서울특별시 영등포구 영등포로6길 26(양평동2가),2154,126.883227,37.521718,189677.3107,546920.9511
229,1156000000,475,서울특별시,영등포구,브릿지호텔,1.15601E+24,1156012600,1156061000,"서울특별시 영등포구 영등포로 9(양평동2가, 마루관광호텔)",2519,126.882612,37.523753,189623.2046,547146.8795
230,1156000000,406,서울특별시,영등포구,문래중학교,1.15601E+24,1156012400,1156060500,서울특별시 영등포구 선유서로13길 6(문래동6가),775,126.884247,37.52051,189767.3013,546786.7834
231,1156000000,421,서울특별시,영등포구,서울영문초등학교,1.15601E+24,1156012400,1156060500,서울특별시 영등포구 문래로 56(문래동6가),720,126.887543,37.519598,190058.5474,546685.1817
234,1156000000,416,서울특별시,영등포구,양화중학교,1.15601E+24,1156012100,1156060500,서울특별시 영등포구 당산로 56(문래동3가),725,126.89605,37.519769,190810.6356,546703.32
237,1159000000,80,서울특별시,동작구,서울삼일초등학교,1.15901E+24,1159010700,1159064000,서울특별시 동작구 사당로23나길 27(사당동),630,126.975203,37.488285,197806.9293,543204.1537
238,1159000000,23,서울특별시,동작구,남성중학교,1.15901E+24,1159010700,1159065000,서울특별시 동작구 남부순환로269길 166(사당동),1188,126.972489,37.478825,197566.6762,542154.3736
240,1159000000,96,서울특별시,동작구,사당종합체육관,1.15901E+24,1159010700,1159064000,서울특별시 동작구 사당로27길 232(사당동),2495,126.969538,37.492666,197306.0986,543690.5985
241,1159000000,88,서울특별시,동작구,서울동작초등학교,1.15901E+24,1159010700,1159063000,서울특별시 동작구 동작대로29길 214(사당동),922,126.976509,37.494105,197922.677,543850.1243
242,1159000000,59,서울특별시,동작구,서울남성초등학교,1.15901E+24,1159010700,1159064000,서울특별시 동작구 사당로23길 57-14 (사당동),804,126.975809,37.48461,197860.4196,542796.3266
243,1159000000,90,서울특별시,동작구,사당중학교,1.15901E+24,1159010700,1159064000,서울특별시 동작구 사당로9가길 58(사당동),1131,126.968895,37.487813,197249.046,543151.978
244,1159000000,67,서울특별시,동작구,남사초등학교,1.15901E+24,1159010700,1159062000,서울특별시 동작구 동작대로13길 22(사당동),180,126.978862,37.482344,198130.4389,542544.7124
245,1159000000,89,서울특별시,동작구,동작중학교,1.15901E+24,1159010600,1159063000,서울특별시 동작구 동작대로39가길 83(동작동),539,126.976271,37.495084,197901.6195,543958.7269
246,1159000000,49,서울특별시,동작구,국사봉중학교,1.15901E+24,1159010200,1159056000,서울특별시 동작구 양녕로20길 20(상도동),907,126.945022,37.493712,195138.1593,543807.6259
247,1159000000,64,서울특별시,동작구,서울은로초등학교,1.15901E+24,1159010500,1159060500,서울특별시 동작구 서달로 115(흑석동),555,126.965121,37.508605,196916.1505,545459.7645
248,1159000000,98,서울특별시,동작구,중앙대학교 체육관,1.15901E+24,1159010500,1159060500,서울특별시 동작구 흑석로 84(흑석동),941,126.955559,37.504522,196070.5235,545006.8903
249,1159000000,11,서울특별시,동작구,서울신상도초등학교,1.15901E+24,1159010200,1159054000,서울특별시 동작구 장승배기로 14(상도동),530,126.944064,37.500276,195053.8134,544536.2178
250,1159000000,12,서울특별시,동작구,강현중학교,1.15901E+24,1159010200,1159055000,서울특별시 동작구 상도로13라길 22(상도동),680,126.931101,37.503075,193907.8089,544847.6819
251,1159000000,13,서울특별시,동작구,서울상도초등학교,1.15901E+24,1159010200,1159056000,서울특별시 동작구 성대로21길 62(상도동),680,126.93723,37.49971,194449.5423,544473.7946
252,1159000000,87,서울특별시,동작구,숭실대학교,1.15901E+24,1159010200,1159053000,서울특별시 동작구 상도로 369(상도동),851,126.95828,37.497243,196310.7901,544198.9553
253,1159000000,10,서울특별시,동작구,서울강남초등학교,1.15901E+24,1159010300,1159053000,서울특별시 동작구 강남초등길 15(상도1동),198,126.953676,37.505995,195904.1107,545170.5146
254,1159000000,15,서울특별시,동작구,서울본동초등학교,1.15901E+24,1159010400,1159051000,서울특별시 동작구 노량진로26길 16-40 (본동),638,126.953903,37.510117,195924.4278,545627.9862
255,1159000000,70,서울특별시,동작구,서울영본초등학교,1.15901E+24,1159010400,1159051000,서울특별시 동작구 만양로12가길 69(본동),816,126.948826,37.511154,195475.6018,545743.3597
256,1156000000,420,서울특별시,영등포구,서울영림초등학교,1.15601E+24,1156013300,1156071000,서울특별시 영등포구 시흥대로173길 14(대림동),567,126.902506,37.487352,191377.6036,543104.8031
257,1156000000,415,서울특별시,영등포구,서울신영초등학교,1.15601E+24,1156013300,1156072000,서울특별시 영등포구 도신로4길 32(대림동),552,126.895334,37.500499,190744.9555,544564.6931
258,1156000000,460,서울특별시,영등포구,대림정보문화도서관,1.15601E+24,1156013300,1156072000,서울특별시 영등포구 도신로 27(대림동),216,126.896054,37.504313,190809.0182,544987.9175
259,1156000000,414,서울특별시,영등포구,서울신대림초등학교,1.15601E+24,1156013300,1156070000,서울특별시 영등포구 대림로8길 25(대림동),663,126.905601,37.492076,191651.862,543628.8073
260,1156000000,454,서울특별시,영등포구,구립신길7동경로당,1.15601E+24,1156013200,1156069000,서울특별시 영등포구 여의대방로43길 10(신길동),221,126.921336,37.506396,193044.6857,545216.8894
261,1156000000,455,서울특별시,영등포구,구립대림1경로당,1.15601E+24,1156013300,1156070000,서울특별시 영등포구 디지털로 441(대림동),60,126.906022,37.495431,191689.4136,544001.1791
262,1156000000,402,서울특별시,영등포구,대림중학교,1.15601E+24,1156013300,1156070000,서울특별시 영등포구 시흥대로185길 6(대림동),711,126.907674,37.492424,191835.2342,543667.2723
263,1162000000,387,서울특별시,관악구,은천초등학교,1.16201E+24,1162010100,1162060500,서울특별시 관악구 은천로 69(봉천동),805,126.943129,37.486838,194970.2676,543044.8671
264,1162000000,388,서울특별시,관악구,청룡초등학교,1.16201E+24,1162010100,1162059500,서울특별시 관악구 관악로5길 61(봉천동),340,126.951289,37.475877,195691.359,541827.8707
265,1162000000,398,서울특별시,관악구,청룡산체육관,1.16201E+24,1162010100,1162059500,서울특별시 관악구 관악로5길 91-41 (봉천동),684,126.949371,37.474125,195521.5539,541633.5161
266,1162000000,382,서울특별시,관악구,봉림중학교,1.16201E+24,1162010100,1162059500,서울특별시 관악구 장군봉길 72(봉천동),555,126.93819,37.480736,194533.0015,542367.8991
267,1162000000,397,서울특별시,관악구,봉천초등학교,1.16201E+24,1162010100,1162057500,서울특별시 관악구 행운1라길 17(봉천동),1126,126.957873,37.482654,196274.0432,542579.7663
268,1162000000,379,서울특별시,관악구,관악중학교,1.16201E+24,1162010100,1162057500,서울특별시 관악구 남부순환로237길 60(봉천동),580,126.962009,37.480729,196639.7215,542365.9636
269,1162000000,421,서울특별시,관악구,인헌초등학교,1.16201E+24,1162010100,1162058500,서울특별시 관악구 낙성대로 23(봉천동),595,126.960175,37.476459,196477.3664,541892.122
270,1162000000,380,서울특별시,관악구,당곡중학교,1.16201E+24,1162010100,1162052500,서울특별시 관악구 봉천로13길 101(봉천동),856,126.933161,37.491905,194089.1023,543607.8123
271,1162000000,386,서울특별시,관악구,구암고등학교,1.16201E+24,1162010100,1162056500,서울특별시 관악구 성현로 57(봉천동),852,126.950337,37.49232,195608.0499,543652.8554
272,1162000000,389,서울특별시,관악구,구암중학교,1.16201E+24,1162010100,1162056500,서울특별시 관악구 성현로 53(봉천동),525,126.948362,37.492677,195433.4506,543692.676
273,1162000000,378,서울특별시,관악구,구암초등학교,1.16201E+24,1162010100,1162056500,서울특별시 관악구 구암길 1(봉천동),513,126.947164,37.48964,195327.3475,543355.6332
274,1159000000,43,서울특별시,동작구,수도여자고등학교,1.15901E+24,1159010900,1159068000,서울특별시 동작구 여의대방로10길 73(신대방동),202,126.915514,37.493069,192528.6136,543738.2421
275,1159000000,27,서울특별시,동작구,문창중학교,1.15901E+24,1159010900,1159068000,서울특별시 동작구 여의대방로22나길 40(신대방동),2415,126.921772,37.495826,193082.2643,544043.7349
276,1159000000,95,서울특별시,동작구,서울보라매초등학교,1.15901E+24,1159010900,1159068000,서울특별시 동작구 여의대방로16길 30(신대방동),1092,126.916228,37.496004,192592.0716,544063.8969
277,1159000000,99,서울특별시,동작구,대방동주민센터,1.15901E+24,1159010800,1159066000,서울특별시 동작구 여의대방로44길 20(대방동),231,126.926254,37.508174,193479.6788,545413.9358
278,1159000000,26,서울특별시,동작구,서울문창초등학교,1.15901E+24,1159010900,1159067000,서울특별시 동작구 신대방2길 14(신대방동),1014,126.913912,37.488915,192386.5371,543277.2931
279,1159000000,66,서울특별시,동작구,대방중학교,1.15901E+24,1159010900,1159067000,서울특별시 동작구 여의대방로10길 24(신대방동),952,126.913763,37.495166,192373.9927,543971.0633
280,1159000000,91,서울특별시,동작구,서울신길초등학교,1.15901E+24,1159010800,1159066000,서울특별시 동작구 알마타길 16(대방동),351,126.926322,37.510068,193485.8839,545624.0643
281,1159000000,55,서울특별시,동작구,서울공업고등학교,1.15901E+24,1159010800,1159066000,서울특별시 동작구 대방동1길 46(대방동),717,126.922383,37.501597,193136.8376,544684.1697
282,1159000000,93,서울특별시,동작구,영등포중학교,1.15901E+24,1159010800,1159066000,서울특별시 동작구 등용로8길 5(대방동),861,126.934257,37.507527,194187.2567,545341.5449
283,1159000000,92,서울특별시,동작구,서울영화초등학교,1.15901E+24,1159010800,1159066000,서울특별시 동작구 등용로8길 3(대방동),772,126.932717,37.509224,194051.1777,545530.0542
284,1159000000,94,서울특별시,동작구,강남중학교,1.15901E+24,1159010800,1159066000,서울특별시 동작구 대방동15길 29(대방동),593,126.921876,37.502788,193092.1246,544816.4213
285,1159000000,25,서울특별시,동작구,서울대림초등학교,1.15901E+24,1159010800,1159066000,서울특별시 동작구 대방동1길 22(대방동),880,126.925733,37.500648,193432.955,544578.6806
287,1159000000,54,서울특별시,동작구,동작고등학교,1.15901E+24,1159010700,1159065100,서울특별시 동작구 솔밭로 51(사당동),3240,126.965239,37.482236,196925.4771,542533.1556
288,1159000000,45,서울특별시,동작구,영등포고등학교,1.15901E+24,1159010800,1159066000,서울특별시 동작구 등용로8길 5(대방동),873,126.933666,37.508253,194135.046,545422.155
654,1114000000,31,서울특별시,중구,중림종합복지센터,1.11402E+24,1114017100,1114068000,서울특별시 중구 서소문로6길 16(중림동),198,126.966154,37.559472,197009.5268,551105.3172
655,1117000000,301,서울특별시,용산구,삼광초등학교,1.11701E+24,1117010100,1117051000,서울특별시 용산구 두텁바위로1나길 19(후암동),856,126.976733,37.547239,197943.8587,549747.3365
656,1117000000,302,서울특별시,용산구,보성여자고등학교,1.11701E+24,1117010200,1117052000,서울특별시 용산구 신흥로3가길 66(용산동2가),720,126.984529,37.542749,198632.767,549248.8479
657,1117000000,454,서울특별시,용산구,용암경로당,1.11701E+24,1117010200,1117052000,서울특별시 용산구 신흥로3가길 21-7 (용산동2가),104,126.984677,37.541026,198645.8003,549057.5748
658,1117000000,305,서울특별시,용산구,청파초등학교,1.11701E+24,1117011000,1117055500,서울특별시 용산구 효창원로 228(청파동2가),585,126.964289,37.547632,196844.252,549791.2586
659,1117000000,456,서울특별시,용산구,청파동주민센터,1.11701E+24,1117011000,1117055500,서울특별시 용산구 청파로49길 6(청파동2가),477,126.969869,37.545443,197337.2277,549548.1434
660,1114000000,56,서울특별시,중구,성동글로벌경영고등학교,1.11402E+24,1114016200,1114061500,서울특별시 중구 퇴계로 375(신당동),554,127.012995,37.565826,201148.1013,551810.0429
661,1114000000,54,서울특별시,중구,광희초등학교,1.11402E+24,1114016200,1114061500,서울특별시 중구 다산로 269(신당동),655,127.015117,37.567396,201335.5251,551984.3603
662,1114000000,71,서울특별시,중구,성동공업고등학교,1.11402E+24,1114016300,1114061500,서울특별시 중구 다산로 290(흥인동),738,127.016865,37.56878,201489.9438,552137.9844
663,1114000000,9,서울특별시,중구,장충초등학교,1.11402E+24,1114016200,1114062500,서울특별시 중구 청구로17길 40(신당동),567,127.011105,37.559466,200981.1535,551104.1953
664,1114000000,53,서울특별시,중구,성동고등학교,1.11402E+24,1114016200,1114065000,서울특별시 중구 퇴계로90길 17(신당동),877,127.022898,37.564162,202023.0232,551625.6077
665,1120000000,488,서울특별시,성동구,금호2-3가동주민센터,1.12001E+24,1120011000,1120061500,서울특별시 성동구 무수막18길 1(금호동2가),266,127.020994,37.553177,201855.098,550406.327
666,1120000000,436,서울특별시,성동구,금호공원체육관,1.12001E+24,1120011100,1120061500,서울특별시 성동구 장터1길 20(금호동3가),660,127.018711,37.549396,201653.4495,549986.5899
667,1120000000,498,서울특별시,성동구,별장여관,1.12001E+24,1120011100,1120061500,서울특별시 성동구 무수막길 3-1 (금호동3가),32,127.025326,37.548305,202238.0097,549865.7111
668,1120000000,419,서울특별시,성동구,금옥초등학교,1.12001E+24,1120011200,1120062000,서울특별시 성동구 독서당로 251(금호동4가),561,127.017579,37.546695,201553.4624,549686.8332
669,1114000000,50,서울특별시,중구,훈련원공원 종합체육관,1.11402E+24,1114015100,1114060500,서울특별시 중구 을지로 227(을지로5가),747,127.003879,37.567387,200342.677,551983.3032
678,1120000000,485,서울특별시,성동구,금북초등학교,1.12001E+24,1120010900,1120059000,서울특별시 성동구 행당로1길 13(금호동1가),240,127.023668,37.557345,202091.2775,550868.9448
679,1120000000,418,서울특별시,성동구,금호초등학교,1.12001E+24,1120011000,1120061500,서울특별시 성동구 무수막길 69(금호동2가),2680,126.964886,37.574163,196898.0759,552735.8498
680,1120000000,434,서울특별시,성동구,대현산체육관,1.12001E+24,1120010700,1120057000,서울특별시 성동구 독서당로63길 44(행당동),1090,127.030107,37.553961,202660.2929,550493.5538
681,1120000000,482,서울특별시,성동구,행당제2동주민센터,1.12001E+24,1120010700,1120057000,서울특별시 성동구 행당로9길 9(행당동),126,127.029365,37.558234,202594.6219,550967.732
682,1120000000,483,서울특별시,성동구,응봉초등학교,1.12001E+24,1120010800,1120058000,서울특별시 성동구 독서당로62길 28(응봉동),380,127.033493,37.550151,202959.671,550070.8018
683,1120000000,486,서울특별시,성동구,금호고등학교,1.12001E+24,1120010900,1120059000,서울특별시 성동구 금호로 118(금호동1가),670,127.023494,37.553647,202075.9758,550458.537
684,1120000000,487,서울특별시,성동구,금호1가동주민센터,1.12001E+24,1120010900,1120059000,서울특별시 성동구 행당로 15(금호동1가),270,127.021662,37.55484,201914.0703,550590.8969
685,1120000000,417,서울특별시,성동구,무학여자고등학교,1.12001E+24,1120010700,1120057000,서울특별시 성동구 고산자로 197(행당동),1178,127.033196,37.557667,202933.1122,550904.9665
686,1120000000,414,서울특별시,성동구,동마중학교,1.12001E+24,1120010500,1120054000,서울특별시 성동구 마조로11길 18(마장동),659,127.039712,37.562685,203508.6137,551462.1285
687,1120000000,415,서울특별시,성동구,사근초등학교,1.12001E+24,1120010600,1120055000,서울특별시 성동구 사근동11길 16(사근동),630,127.047668,37.562691,204211.5377,551463.1211
688,1120000000,480,서울특별시,성동구,사근동주민센터,1.12001E+24,1120010600,1120055000,서울특별시 성동구 사근동길 37(사근동),97,127.045367,37.561451,204008.3392,551325.343
689,1120000000,416,서울특별시,성동구,행당초등학교,1.12001E+24,1120010700,1120056000,서울특별시 성동구 고산자로8길 6(행당동),554,127.034695,37.556392,203065.6122,550763.5045
690,1120000000,442,서울특별시,성동구,성동구청,1.12001E+24,1120010700,1120056000,서울특별시 성동구 고산자로 270(행당동),529,127.036734,37.563345,203245.4744,551535.2737
691,1120000000,481,서울특별시,성동구,행당제1동주민센터,1.12001E+24,1120010700,1120056000,서울특별시 성동구 고산자로10길 18(행당동),127,127.036119,37.558574,203191.351,551005.6991
692,1120000000,470,서울특별시,성동구,라테라,1.12001E+24,1120010400,1120053500,서울특별시 성동구 왕십리로22길 16-1 (도선동),50,127.035094,37.56347,203100.5776,551549.1118
693,1120000000,476,서울특별시,성동구,파라다이스,1.12001E+24,1120010400,1120053500,서울특별시 성동구 왕십리로22길 11-11 (도선동),84,127.034537,37.563039,203051.345,551501.2121
694,1120000000,478,서울특별시,성동구,왕십리제2동주민센터,1.12001E+24,1120010200,1120052000,서울특별시 성동구 무학봉15길 6(하왕십리동),70,127.031055,37.561855,202743.7934,551369.6648
695,1120000000,477,서울특별시,성동구,왕십리도선동주민센터,1.12001E+24,1120010100,1120053500,서울특별시 성동구 마장로 141(상왕십리동),313,127.025578,37.567873,202259.699,552037.5529
696,1120000000,412,서울특별시,성동구,숭신초등학교,1.12001E+24,1120010200,1120053500,서울특별시 성동구 마장로 161(하왕십리동),1923,127.027769,37.567772,202453.2652,552026.347
697,1120000000,468,서울특별시,성동구,리젠트,1.12001E+24,1120010400,1120053500,서울특별시 성동구 무학로2길 43(도선동),89,127.034474,37.562817,203045.8083,551476.6196
698,1117000000,324,서울특별시,용산구,오산고등학교,1.11701E+24,1117013600,1117070000,서울특별시 용산구 보광로7길 17(보광동),800,126.999764,37.524544,199979.1667,547228.1982
699,1120000000,413,서울특별시,성동구,무학초등학교,1.12001E+24,1120010200,1120052000,서울특별시 성동구 무학봉15길 21(하왕십리동),855,127.02953,37.56294,202609.0357,551490.1035
700,1117000000,323,서울특별시,용산구,서빙고초등학교,1.11701E+24,1117013300,1117069000,서울특별시 용산구 서빙고로51길 14(서빙고동),1650,126.992403,37.522146,199328.4144,546962.0851
701,1117000000,431,서울특별시,용산구,서빙고동 주민센터,1.11701E+24,1117013300,1117069000,서울특별시 용산구 서빙고로 279(서빙고동),113,126.994637,37.520487,199525.8933,546777.9555
708,1121500000,377,서울특별시,광진구,서울광장초등학교,1.12151E+24,1121510400,1121581000,서울특별시 광진구 광장로1길 27(광장동),5411,127.101796,37.548618,208995.4946,549904.9445
709,1121500000,416,서울특별시,광진구,광남중학교,1.12151E+24,1121510400,1121581000,서울특별시 광진구 아차산로70길 17-62 (광장동),2993,127.101691,37.540771,208987.217,549034.0844
710,1121500000,413,서울특별시,광진구,양진중학교,1.12151E+24,1121510400,1121581000,서울특별시 광진구 워커힐로 177(광장동),5172,127.098343,37.544573,208690.8343,549455.6968
711,1117000000,443,서울특별시,용산구,한남동공영주차장,1.11701E+24,1117013100,1117068500,서울특별시 용산구 이태원로 224-19 (한남동),1622,126.997468,37.539158,199776.2237,548850.1756
712,1121500000,349,서울특별시,광진구,서울용곡초등학교,1.12151E+24,1121510100,1121577000,서울특별시 광진구 용마산로22길 82(중곡동),2637,127.088537,37.566836,207821.9348,551925.7519
713,1121500000,422,서울특별시,광진구,능동 주민센터,1.12151E+24,1121510200,1121578000,서울특별시 광진구 천호대로112길 55(능동),255,127.0804,37.553752,207104.3052,550472.9905
714,1121500000,375,서울특별시,광진구,서울광남초등학교,1.12151E+24,1121510400,1121581000,서울특별시 광진구 아차산로70길 35(광장동),2756,127.100806,37.541118,208908.8858,549072.4308
722,1121500000,411,서울특별시,광진구,서울구의초등학교,1.12151E+24,1121510700,1121571000,서울특별시 광진구 광나루로30길 49(화양동),1630,127.079547,37.543007,207029.9122,549280.3617
723,1121500000,446,서울특별시,광진구,화양동주민센터,1.12151E+24,1121510700,1121571000,서울특별시 광진구 능동로17길 39(화양동),135,127.071322,37.546597,206302.7279,549678.2084
724,1121500000,420,서울특별시,광진구,중곡제1동 주민센터,1.12151E+24,1121510100,1121574000,서울특별시 광진구 긴고랑로12길 49(중곡동),242,127.080144,37.560695,207081.0443,551243.4897
732,1121500000,410,서울특별시,광진구,구의중학교,1.12151E+24,1121510700,1121571000,서울특별시 광진구 광나루로30길 80(화양동),7069,127.079257,37.542754,207004.3515,549252.2124
733,1120000000,494,서울특별시,성동구,성수초등학교,1.12001E+24,1120011500,1120069000,서울특별시 성동구 아차산로17길 21(성수동2가),320,127.063435,37.544241,205605.9325,549416.2492
734,1120000000,427,서울특별시,성동구,송원초등학교,1.12001E+24,1120011800,1120072000,서울특별시 성동구 동일로43길 9(송정동),680,127.069348,37.554055,206127.7049,550505.8198
735,1120000000,495,서울특별시,성동구,송정동주민센터,1.12001E+24,1120011800,1120072000,서울특별시 성동구 동일로43길 13(송정동),79,127.069585,37.554523,206148.6108,550557.7877
736,1120000000,428,서울특별시,성동구,서울새활용플라자,1.12001E+24,1120012200,1120079000,서울특별시 성동구 자동차시장길 49(용답동),1630,127.057632,37.558581,205092.1515,551007.4528
737,1120000000,496,서울특별시,성동구,용답동주민센터,1.12001E+24,1120012200,1120079000,서울특별시 성동구 용답중앙23길 20(용답동),150,127.055565,37.564098,204909.1676,551619.6182
746,1120000000,492,서울특별시,성동구,성수1가제2동주민센터,1.12001E+24,1120011400,1120066000,서울특별시 성동구 왕십리로5길 3(성수동1가),213,127.044337,37.5463,203918.1315,549643.7605
747,1120000000,429,서울특별시,성동구,성수공업고등학교,1.12001E+24,1120011500,1120067000,서울특별시 성동구 뚝섬로 365(성수동2가),567,127.051146,37.540194,204520.1826,548966.3853
748,1120000000,425,서울특별시,성동구,성원중학교,1.12001E+24,1120011500,1120067000,서울특별시 성동구 성덕정9가길 13(성수동2가),1568,127.052308,37.539352,204622.9599,548872.9956
749,1120000000,493,서울특별시,성동구,성수2가제1동주민센터,1.12001E+24,1120011500,1120067000,서울특별시 성동구 뚝섬로 385-19 (성수동2가),140,127.053985,37.539505,204771.1582,548890.0594
750,1120000000,500,서울특별시,성동구,성수2가제3동주민센터,1.12001E+24,1120011500,1120069000,서울특별시 성동구 광나루로2길 35(성수동2가),190,127.055243,37.548233,204881.7653,549858.8184
751,1120000000,491,서울특별시,성동구,성수1가제1동주민센터,1.12001E+24,1120011400,1120065000,서울특별시 성동구 뚝섬로3길 18(성수동1가),195,127.04968,37.542089,204390.5402,549176.6466
752,1120000000,423,서울특별시,성동구,성수중학교,1.12001E+24,1120011400,1120066000,서울특별시 성동구 서울숲길 18(성수동1가),1386,127.038974,37.547222,203444.1015,549745.8969
753,1120000000,424,서울특별시,성동구,성수고등학교,1.12001E+24,1120011400,1120066000,서울특별시 성동구 서울숲길 18(성수동1가),1988,127.038223,37.547833,203377.7719,549813.7177
754,1120000000,422,서울특별시,성동구,경일중학교,1.12001E+24,1120011400,1120065000,서울특별시 성동구 성수일로 27(성수동1가),676,127.048106,37.543598,204251.3201,549344.0461
755,1120000000,489,서울특별시,성동구,금호4가동주민센터,1.12001E+24,1120011200,1120062000,서울특별시 성동구 독서당로46길 26(금호동4가),255,127.022373,37.547199,201977.0771,549742.9122
756,1120000000,421,서울특별시,성동구,옥정초등학교,1.12001E+24,1120011300,1120064500,서울특별시 성동구 한림말길 43(옥수동),2722,127.01556,37.541934,201375.1301,549158.3885
757,1120000000,490,서울특별시,성동구,옥수동주민센터,1.12001E+24,1120011300,1120064500,서울특별시 성동구 독서당로 203(옥수동),229,127.013492,37.543654,201192.3403,549349.2971
763,1120000000,420,서울특별시,성동구,옥수초등학교,1.12001E+24,1120011200,1120062000,서울특별시 성동구 금호로1길 25(금호동4가),576,127.021923,37.549585,201937.2684,550007.669
531,1111000000,357,서울특별시,종로구,서울과학고등학교,1.11102E+24,1111017000,1111065000,서울특별시 종로구 혜화로 63(명륜1가),1166,126.998367,37.591834,199855.7783,554696.592
532,1111000000,23,서울특별시,종로구,창신초등학교,1.11102E+24,1111017400,1111067000,서울특별시 종로구 지봉로 73(창신동),660,127.014352,37.576019,201267.8067,552941.3993
533,1111000000,369,서울특별시,종로구,종로구민회관,1.11102E+24,1111017400,1111067000,서울특별시 종로구 지봉로5길 7-5 (창신동),953,127.014372,37.573464,201269.5956,552657.783
534,1111000000,338,서울특별시,종로구,창신3동주민센터,1.11102E+24,1111017400,1111069000,"서울특별시 종로구 지봉로 87(창신동, 창신이수아파트)",118,127.01473,37.578026,201301.1794,553164.1894
535,1111000000,376,서울특별시,종로구,종로종합사회복지관,1.11102E+24,1111017400,1111069000,서울특별시 종로구 지봉로13길 82(창신동),325,127.012486,37.577296,201102.9198,553083.108
536,1111000000,367,서울특별시,종로구,혜화동자치회관,1.11102E+24,1111016900,1111065000,서울특별시 종로구 혜화로 12(혜화동),259,127.00056,37.586987,200049.4387,554158.6352
537,1111000000,332,서울특별시,종로구,종로노인종합복지관,1.11102E+24,1111016500,1111064000,서울특별시 종로구 율곡로19길 17-8 (이화동),389,127.006028,37.57672,200532.4704,553019.078
538,1111000000,368,서울특별시,종로구,이화동주민센터,1.11102E+24,1111016500,1111064000,서울특별시 종로구 이화장길 33(이화동),279,127.004333,37.576936,200382.754,553043.0688
539,1111000000,377,서울특별시,종로구,종로구보훈회관,1.11102E+24,1111016500,1111064000,서울특별시 종로구 율곡로19길 17-3 (이화동),213,127.005682,37.57642,200501.9439,552985.7763
540,1111000000,22,서울특별시,종로구,올림픽기념국민생활관,1.11102E+24,1111016900,1111065000,서울특별시 종로구 성균관로 91(혜화동),1224,126.9988,37.590339,199894.028,554530.6355
547,1111000000,361,서울특별시,종로구,종로56가동주민센터,1.11102E+24,1111016200,1111063000,서울특별시 종로구 종로35가길 19(효제동),160,127.005068,37.572051,200447.68,552500.8924
554,1111000000,372,서울특별시,종로구,서머셋펠리스 서울,1.11101E+24,1111012400,1111061500,서울특별시 종로구 율곡로2길 7(수송동),19800,126.981162,37.57517,198335.8712,552847.2467
555,1111000000,301,서울특별시,종로구,교동초등학교,1.11101E+24,1111013400,1111061500,서울특별시 종로구 삼일대로 446(경운동),343,126.987747,37.574764,198917.5698,552802.0481
556,1111000000,374,서울특별시,종로구,메이플레이스 호텔,1.11102E+24,1111015900,1111061500,서울특별시 종로구 율곡로 179(원남동),9900,126.998749,37.576103,199889.5231,552950.675
557,1111000000,375,서울특별시,종로구,오라카이 대학로 호텔,1.11102E+24,1111015900,1111061500,서울특별시 종로구 율곡로 180(원남동),9900,126.998717,37.575604,199886.6532,552895.2719
558,1111000000,321,서울특별시,종로구,효제초등학교,1.11102E+24,1111016200,1111063000,서울특별시 종로구 대학로 12(효제동),486,127.002931,37.572674,200258.9368,552570.0657
559,1111000000,17,서울특별시,종로구,재동초등학교,1.11101E+24,1111014600,1111060000,서울특별시 종로구 북촌로4길 7(가회동),202,126.985568,37.57983,198725.2012,553364.3831
560,1111000000,378,서울특별시,종로구,종로구웰니스센터,1.11101E+24,1111014900,1111060000,서울특별시 종로구 율곡로 89(원서동),175,126.988998,37.577859,199028.1163,553145.546
562,1111000000,347,서울특별시,종로구,교남동주민센터,1.11102E+24,1111018100,1111058000,서울특별시 종로구 송월길 154(행촌동),313,126.961947,37.571912,196638.339,552486.2047
563,1117000000,428,서울특별시,용산구,이태원1동 주민센터,1.11701E+24,1117013000,1117065000,서울특별시 용산구 보광로 104-6 (이태원동),112,126.995072,37.532454,199564.4307,548106.1646
564,1117000000,458,서울특별시,용산구,보광초등학교,1.11701E+24,1117013000,1117065000,서울특별시 용산구 우사단로 20(이태원동),675,126.996283,37.532603,199671.4603,548122.6791
565,1117000000,333,서울특별시,용산구,이태원초등학교,1.11701E+24,1117013000,1117066000,서울특별시 용산구 녹사평대로40길 19(이태원동),1206,126.988025,37.535867,198941.5961,548484.9727
566,1117000000,429,서울특별시,용산구,이태원2동 주민센터,1.11701E+24,1117013000,1117066000,서울특별시 용산구 회나무로13길 58(이태원동),509,126.990191,37.541867,199133.137,549150.8394
567,1117000000,444,서울특별시,용산구,용강중학교,1.11701E+24,1117012900,1117063000,서울특별시 용산구 이촌로65가길 91(이촌동),198,126.976086,37.521438,197885.9986,546883.7409
568,1117000000,445,서울특별시,용산구,중경고등학교,1.11701E+24,1117012900,1117063000,서울특별시 용산구 이촌로84길 34(이촌동),755,126.975722,37.518106,197853.7255,546513.9391
569,1117000000,427,서울특별시,용산구,이촌2동 주민센터,1.11701E+24,1117012900,1117064000,서울특별시 용산구 이촌로18길 20(이촌동),343,126.954689,37.526227,195994.7184,547415.9493
570,1117000000,416,서울특별시,용산구,용산구청,1.11701E+24,1117013000,1117065000,서울특별시 용산구 녹사평대로 150(이태원동),264,126.990119,37.532512,199126.6383,548112.5831
571,1117000000,423,서울특별시,용산구,효창동 주민센터,1.11701E+24,1117011900,1117058000,서울특별시 용산구 효창원로 161(효창동),345,126.961624,37.542557,196608.5278,549228.0656
572,1117000000,424,서울특별시,용산구,용문동 주민센터,1.11701E+24,1117012000,1117059000,서울특별시 용산구 새창로12길 13(도원동),308,126.957558,37.538946,196248.984,548827.4686
573,1117000000,327,서울특별시,용산구,한강로동주민센터,1.11701E+24,1117012500,1117062500,서울특별시 용산구 한강대로38길 28(한강로2가),320,126.96952,37.529103,197305.8388,547734.628
574,1117000000,314,서울특별시,용산구,신용산초등학교,1.11701E+24,1117012900,1117063000,서울특별시 용산구 이촌로 255(이촌동),380,126.975897,37.520011,197869.2937,546725.3239
575,1117000000,453,서울특별시,용산구,용산구문화체육센터,1.11701E+24,1117012200,1117056000,서울특별시 용산구 백범로 350(문배동),721,126.967683,37.537202,197143.7326,548633.5347
576,1117000000,437,서울특별시,용산구,성심여자고등학교,1.11701E+24,1117011800,1117057000,서울특별시 용산구 원효로19길 49(원효로4가),542,126.954587,37.534173,195986.1536,548297.849
577,1117000000,308,서울특별시,용산구,금양초등학교,1.11701E+24,1117011900,1117058000,서울특별시 용산구 효창원로 137(효창동),393,126.961774,37.540786,196621.6918,549031.5796
633,1117000000,7,서울특별시,용산구,남정초등학교,1.11701E+24,1117011300,1117056000,서울특별시 용산구 원효로64길 17-10 (원효로2가),562,126.964978,37.536355,196904.6785,548539.6592
971,1129000000,565,서울특별시,성북구,아리랑힐동대문호텔,1.12901E+24,1129011900,1129057500,서울특별시 성북구 아리랑로 8(동선동4가),9785,127.016555,37.593617,201462.0599,554894.6171
972,1129000000,551,서울특별시,성북구,개운중학교,1.12901E+24,1129010300,1129058000,서울특별시 성북구 북악산로 935(돈암동),13029,127.02485,37.594604,202194.6315,555004.3123
983,1129000000,521,서울특별시,성북구,돈암초등학교,1.12901E+24,1129010900,1129057500,서울특별시 성북구 동소문로13길 38(동소문동6가),10946,127.012851,37.593318,201134.9565,554861.3425
984,1135000000,490,서울특별시,노원구,월계중학교,1.13501E+24,1135010200,1135057000,서울특별시 노원구 월계로45가길 54(월계동),1430,127.052131,37.630204,204601.7147,558956.5019
985,1132000000,136,서울특별시,도봉구,도봉 문화고등학교,1.13201E+24,1132010600,1132069000,서울특별시 도봉구 마들로 598(방학동),1514,127.047082,37.663451,204154.1145,562646.3546
986,1132000000,163,서울특별시,도봉구,세화모텔,1.13201E+24,1132010600,1132069000,서울특별시 도봉구 방학로6길 17(방학동),400,125,31,8973.125327,-174806.0956
987,1132000000,137,서울특별시,도봉구,서울방학초등학교,1.13201E+24,1132010600,1132070000,서울특별시 도봉구 도당로9길 34(방학동),7023,127.032057,37.663921,202828.4586,562697.9483
988,1132000000,141,서울특별시,도봉구,서울초당초등학교,1.13201E+24,1132010600,1132071000,서울특별시 도봉구 해등로32길 11(방학동),880,127.0223,37.658147,201967.76,562056.8798
989,1132000000,140,서울특별시,도봉구,서울신방학초등학교,1.13201E+24,1132010600,1132071000,서울특별시 도봉구 시루봉로 173(방학동),1414,127.029585,37.665791,202610.2489,562905.4759
990,1132000000,157,서울특별시,도봉구,학마을도서관,1.13201E+24,1132010600,1132071000,서울특별시 도봉구 시루봉로 128(방학동),3837,127.027937,37.662157,202465.017,562502.0655
991,1135000000,357,서울특별시,노원구,신계초등학교,1.13501E+24,1135010200,1135057000,서울특별시 노원구 초안산로 29(월계동),498,127.052974,37.630432,204676.0861,558981.9213
992,1135000000,356,서울특별시,노원구,신창중학교,1.13501E+24,1135010200,1135057000,서울특별시 노원구 월계로45길 92(월계동),625,127.047529,37.628032,204195.6184,558715.2558
993,1132000000,155,서울특별시,도봉구,덕성여자대학교,1.13201E+24,1132010500,1132066000,서울특별시 도봉구 삼양로144길 33(쌍문동),7659,127.016977,37.651659,201498.1706,561336.6309
994,1132000000,132,서울특별시,도봉구,백운중학교,1.13201E+24,1132010500,1132067000,서울특별시 도봉구 도봉로129길 50(쌍문동),7299,127.035956,37.656046,203172.8112,561824.0086
995,1132000000,133,서울특별시,도봉구,신도봉중학교,1.13201E+24,1132010500,1132068000,서울특별시 도봉구 도봉로115길 16(쌍문동),11776,127.033206,37.649252,202930.4381,561069.9058
996,1132000000,164,서울특별시,도봉구,인터넷모텔,1.13201E+24,1132010500,1132068000,서울특별시 도봉구 우이천로24길 65(쌍문동),425,125,32,10996.7607,-63897.0842
997,1132000000,135,서울특별시,도봉구,서울창도초등학교,1.13201E+24,1132010600,1132069000,서울특별시 도봉구 방학로 32-28 (방학동),532,127.049511,37.663694,204368.4527,562673.4999
1007,1132000000,131,서울특별시,도봉구,서울쌍문초등학교,1.13201E+24,1132010500,1132066000,서울특별시 도봉구 우이천로 360(쌍문동),7785,127.024391,37.648603,202152.5027,560997.5935
824,1123000000,341,서울특별시,동대문구,전동초등학교,1.12301E+24,1123010400,1123057000,서울특별시 동대문구 전농로16길 61(전농동),3500,127.061189,37.5791,205404.945,553285.0148
833,1123000000,363,서울특별시,동대문구,제기동주민센터,1.12301E+24,1123010300,1123054500,서울특별시 동대문구 약령시로 71(제기동),150,127.037825,37.583171,203340.9562,553735.7595
834,1123000000,386,서울특별시,동대문구,성일중학교,1.12301E+24,1123010300,1123054500,서울특별시 동대문구 왕산로23길 55(제기동),11572,127.033855,37.58134,202990.4214,553532.4678
835,1123000000,387,서울특별시,동대문구,홍파초등학교,1.12301E+24,1123010300,1123054500,서울특별시 동대문구 고산자로 518(제기동),571,127.039389,37.586306,203478.9524,554083.7479
836,1123000000,338,서울특별시,동대문구,전농초등학교,1.12301E+24,1123010400,1123056000,서울특별시 동대문구 사가정로 66(전농동),977,127.054553,37.574881,204819.0769,552816.4199
837,1123000000,373,서울특별시,동대문구,동대문중학교,1.12301E+24,1123010400,1123056000,서울특별시 동대문구 사가정로 59(전농동),3500,127.052259,37.574643,204616.4358,552789.8717
838,1123000000,382,서울특별시,동대문구,전농1동주민센터,1.12301E+24,1123010400,1123056000,서울특별시 동대문구 서울시립대로9길 21(전농동),221,127.047717,37.577983,204214.998,553160.3753
839,1123000000,340,서울특별시,동대문구,전곡초등학교,1.12301E+24,1123010400,1123057000,서울특별시 동대문구 전농로 172(전농동),3500,127.056494,37.580459,204990.1015,553435.6395
840,1121500000,439,서울특별시,광진구,자양제3동 주민센터,1.12151E+24,1121510500,1121584000,서울특별시 광진구 뚝섬로 568(자양동),141,127.072746,37.533941,206429.6745,548273.6674
841,1121500000,403,서울특별시,광진구,신양중학교,1.12151E+24,1121510500,1121584700,서울특별시 광진구 자양강변길 73(자양동),1984,127.063321,37.533449,205596.6787,548218.4056
842,1121500000,412,서울특별시,광진구,서울광진초등학교,1.12151E+24,1121510300,1121586000,서울특별시 광진구 자양로40길 41(구의동),11848,127.091433,37.547561,208079.8375,549786.7235
843,1121500000,423,서울특별시,광진구,구남초등학교,1.12151E+24,1121510300,1121587000,서울특별시 광진구 구의강변로 69(구의동),405,127.092106,37.537173,208140.4651,548633.8196
844,1123000000,359,서울특별시,동대문구,동대문구청,1.12301E+24,1123010200,1123053600,서울특별시 동대문구 천호대로 145(용두동),730,127.03992,37.574285,203526.4615,552749.6342
845,1123000000,362,서울특별시,동대문구,용신동주민센터,1.12301E+24,1123010200,1123053600,서울특별시 동대문구 천호대로27길 35(용두동),267,127.037285,37.575823,203293.5655,552920.2421
846,1121500000,405,서울특별시,광진구,자양고등학교,1.12151E+24,1121510500,1121584000,서울특별시 광진구 뚝섬로37길 28(자양동),975,127.073081,37.536062,206459.0918,548509.0665
847,1121500000,381,서울특별시,광진구,광양고등학교,1.12151E+24,1121510500,1121583000,서울특별시 광진구 자양로3가길 31(자양동),2856,127.086086,37.529349,207609.1716,547764.9589
848,1121500000,409,서울특별시,광진구,광진중학교,1.12151E+24,1121510500,1121583000,서울특별시 광진구 뚝섬로64길 45(자양동),2017,127.089529,37.532263,207913.2147,548088.6999
849,1121500000,407,서울특별시,광진구,서울신자초등학교,1.12151E+24,1121510500,1121583000,서울특별시 광진구 뚝섬로46길 64(자양동),2061,127.075586,37.530238,206681.0009,547862.8059
850,1121500000,408,서울특별시,광진구,광양중학교,1.12151E+24,1121510500,1121583000,서울특별시 광진구 자양로3길 7(자양동),939,127.085416,37.530389,207549.9297,547880.392
851,1121500000,444,서울특별시,광진구,자양2동주민센터,1.12151E+24,1121510500,1121583000,서울특별시 광진구 자양로3가길 26(자양동),170,127.084536,37.528853,207472.2895,547709.837
852,1121500000,357,서울특별시,광진구,서울동자초등학교,1.12151E+24,1121510500,1121584000,서울특별시 광진구 뚝섬로 561(자양동),1098,127.073088,37.534675,206459.8461,548355.0771
853,1121500000,406,서울특별시,광진구,자양중학교,1.12151E+24,1121510500,1121584000,서울특별시 광진구 뚝섬로41길 33(자양동),1140,127.074461,37.535586,206581.0791,548456.3453
854,1126000000,328,서울특별시,중랑구,중목초등학교,1.12601E+24,1126010100,1126052000,서울특별시 중랑구 동일로 665(면목동),577,127.079339,37.590045,207007.1396,554500.9414
855,1121500000,417,서울특별시,광진구,광남고등학교,1.12151E+24,1121510400,1121581000,서울특별시 광진구 아차산로70길 17-16 (광장동),886,127.101699,37.541736,208987.7295,549141.1651
856,1121500000,443,서울특별시,광진구,광장동주민센터,1.12151E+24,1121510400,1121581000,서울특별시 광진구 광장로 52(광장동),177,127.102983,37.546956,209100.5789,549720.64
857,1121500000,355,서울특별시,광진구,서울자양초등학교,1.12151E+24,1121510500,1121582000,서울특별시 광진구 아차산로44길 26(자양동),5339,127.079541,37.536798,207029.9861,548591.2578
858,1121500000,431,서울특별시,광진구,자양제1동 주민센터,1.12151E+24,1121510500,1121582000,서울특별시 광진구 자양로13길 37(자양동),156,127.082515,37.534484,207293.0535,548334.581
877,1126000000,2,서울특별시,중랑구,중랑초등학교,1.12601E+24,1126010100,1126052000,서울특별시 중랑구 봉우재로6길 26(면목동),3498,127.075785,37.589181,206693.3359,554404.8667
878,1123000000,355,서울특별시,동대문구,휘경중학교,1.12301E+24,1123010900,1123073000,서울특별시 동대문구 망우로18나길 20(휘경동),459,127.061751,37.587084,205454.0078,554171.1804
879,1123000000,357,서울특별시,동대문구,휘봉고등학교,1.12301E+24,1123010900,1123073000,서울특별시 동대문구 한천로 290(휘경동),3500,127.06892,37.58638,206087.2495,554093.4393
880,1123000000,370,서울특별시,동대문구,휘경2동주민센터,1.12301E+24,1123010900,1123073000,서울특별시 동대문구 한천로 329(휘경동),157,127.06858,37.590134,206056.8773,554510.0956
881,1123000000,354,서울특별시,동대문구,휘봉초등학교,1.12301E+24,1123010900,1123073000,서울특별시 동대문구 장안벚꽃로 309(휘경동),3500,127.070152,37.586323,206196.0546,554087.2556
882,1123000000,371,서울특별시,동대문구,이문1동주민센터,1.12301E+24,1123011000,1123074000,서울특별시 동대문구 외대역동로 114-1 (이문동),150,127.065478,37.597835,205782.3483,555364.6628
883,1123000000,358,서울특별시,동대문구,이문초등학교,1.12301E+24,1123011000,1123075000,서울특별시 동대문구 신이문로 16(이문동),887,127.063844,37.602643,205637.725,555898.2249
884,1123000000,396,서울특별시,동대문구,이문2동주민센터,1.12301E+24,1123011000,1123075000,서울특별시 동대문구 신이문로 27-5 (이문동),203,127.065116,37.603329,205750.0094,555974.3883
885,1123000000,388,서울특별시,동대문구,청량초등학교,1.12301E+24,1123010800,1123071000,서울특별시 동대문구 회기로25길 31(회기동),704,127.055554,37.591876,204906.3965,554702.75
886,1123000000,369,서울특별시,동대문구,휘경1동주민센터,1.12301E+24,1123010900,1123072000,서울특별시 동대문구 외대역동로6길 3(휘경동),171,127.065763,37.59293,205807.8873,554820.2467
887,1123000000,356,서울특별시,동대문구,휘경공업고등학교,1.12301E+24,1123010900,1123073000,서울특별시 동대문구 겸재로 21(휘경동),3500,127.069537,37.585333,206141.8797,553977.2854
888,1123000000,392,서울특별시,동대문구,장안1동주민센터,1.12301E+24,1123010600,1123065000,서울특별시 동대문구 한천로18길 52(장안동),102,127.066476,37.567754,205872.8857,552026.1083
889,1123000000,349,서울특별시,동대문구,장평초등학교,1.12301E+24,1123010600,1123066000,서울특별시 동대문구 답십리로69길 27(장안동),1462,127.073263,37.573809,206471.8929,552698.5155
890,1123000000,393,서울특별시,동대문구,장안2동주민센터,1.12301E+24,1123010600,1123066000,서울특별시 동대문구 사가정로 230-1 (장안동),180,127.07061,37.57849,206237.147,553217.8988
891,1123000000,389,서울특별시,동대문구,청량중학교,1.12301E+24,1123010700,1123070500,서울특별시 동대문구 왕산로 301(청량리동),2082,127.050941,37.587426,204499.2228,554208.558
892,1123000000,390,서울특별시,동대문구,청량고등학교,1.12301E+24,1123010700,1123071000,서울특별시 동대문구 왕산로 303(청량리동),3500,127.050874,37.588767,204493.2202,554357.4073
893,1123000000,394,서울특별시,동대문구,회기동주민센터,1.12301E+24,1123010800,1123071000,서울특별시 동대문구 회기로25길 12-1 (회기동),100,127.055442,37.590769,204896.5202,554579.8473
903,1123000000,339,서울특별시,동대문구,배봉초등학교,1.12301E+24,1123010400,1123057000,서울특별시 동대문구 사가정로 193(전농동),1287,127.066784,37.580122,205899.0736,553398.7906
904,1123000000,365,서울특별시,동대문구,답십리1동 주민센터,1.12301E+24,1123010500,1123060000,서울특별시 동대문구 사가정로 30(답십리동),323,127.051136,37.571959,204517.4003,552491.8964
905,1123000000,391,서울특별시,동대문구,답십리초등학교,1.12301E+24,1123010500,1123061000,서울특별시 동대문구 답십리로60길 84(답십리동),13276,127.063027,37.569596,205568.0159,552230.239
906,1123000000,366,서울특별시,동대문구,답십리2동주민센터,1.12301E+24,1123010500,1123061000,서울특별시 동대문구 한천로11길 18(답십리동),239,127.061323,37.567416,205417.6614,551988.2436
907,1123000000,348,서울특별시,동대문구,장평중학교,1.12301E+24,1123010600,1123065000,서울특별시 동대문구 답십리로72길 158(장안동),665,127.070703,37.566635,206246.42,551902.1239
908,1123000000,347,서울특별시,동대문구,안평초등학교,1.12301E+24,1123010600,1123065000,서울특별시 동대문구 장한로14길 61(장안동),558,127.071305,37.565764,206299.6181,551805.5288
909,1129000000,561,서울특별시,성북구,성북구청,1.12901E+24,1129011500,1129055500,서울특별시 성북구 보문로 168(삼선동5가),587,127.016881,37.589456,201490.9159,554432.829
910,1123000000,361,서울특별시,동대문구,전농2동주민센터,1.12301E+24,1123010400,1123057000,서울특별시 동대문구 사가정로 137(전농동),129,127.060046,37.578074,205304.0515,553171.1331
911,1123000000,342,서울특별시,동대문구,전일중학교,1.12301E+24,1123010400,1123057000,서울특별시 동대문구 사가정로13길 67(전농동),1191,127.058519,37.581837,205168.9374,553588.6358
912,1126000000,466,서울특별시,중랑구,봉화초등학교,1.12601E+24,1126010600,1126069000,서울특별시 중랑구 신내로15길 110(신내동),540,127.092174,37.613348,208138.1545,557088.3661
913,1126000000,468,서울특별시,중랑구,중랑구청,1.12601E+24,1126010600,1126069000,서울특별시 중랑구 봉화산로 179(신내동),27797,127.092611,37.606699,208177.5251,556350.4362
914,1129000000,547,서울특별시,성북구,성북초등학교,1.12901E+24,1129010100,1129052500,서울특별시 성북구 성북로 102-10 (성북동),1295,126.997991,37.593656,199822.5957,554898.7854
915,1129000000,544,서울특별시,성북구,경동고등학교,1.12901E+24,1129011300,1129055500,서울특별시 성북구 보문로29길 49(삼선동3가),8411,127.01497,37.585744,201322.1758,554020.8281
916,1129000000,546,서울특별시,성북구,삼선초등학교,1.12901E+24,1129011300,1129055500,서울특별시 성북구 보문로29길 106(삼선동3가),4967,127.012581,37.585766,201111.2387,554023.1824
917,1126000000,23,서울특별시,중랑구,중화초등학교,1.12601E+24,1126010600,1126069000,서울특별시 중랑구 신내로7가길 22(신내동),560,127.094646,37.603004,208357.5838,555940.5097
918,1126000000,457,서울특별시,중랑구,망우초등학교,1.12601E+24,1126010500,1126065500,서울특별시 중랑구 망우로72길 49(망우동),705,127.103434,37.59833,209134.2314,555422.5757
919,1126000000,464,서울특별시,중랑구,봉화중학교,1.12601E+24,1126010500,1126065500,서울특별시 중랑구 망우로70길 89(망우동),10944,127.103914,37.596582,209176.8276,555228.6006
920,1126000000,473,서울특별시,중랑구,망우본동 주민센터,1.12601E+24,1126010500,1126065500,서울특별시 중랑구 망우로67길 10(망우동),489,127.101384,37.600657,208952.8786,555680.6784
921,1126000000,318,서울특별시,중랑구,면일초등학교,1.12601E+24,1126010500,1126066000,서울특별시 중랑구 용마산로100길 13(망우동),693,127.099947,37.591781,208827.0709,554695.4305
922,1126000000,465,서울특별시,중랑구,면북초등학교,1.12601E+24,1126010500,1126066000,서울특별시 중랑구 용마공원로5길 32(망우동),130,127.103397,37.594269,209131.4584,554971.8873
923,1126000000,467,서울특별시,중랑구,서울새솔초등학교,1.12601E+24,1126010600,1126068000,서울특별시 중랑구 신내역로1길 164(신내동),635,127.111379,37.618055,209833.2154,557612.6287
933,1126000000,462,서울특별시,중랑구,원묵고등학교,1.12601E+24,1126010400,1126062000,서울특별시 중랑구 숙선옹주로 82(묵동),714,127.086037,37.615419,207596.1634,557317.7483
934,1126000000,18,서울특별시,중랑구,신묵초등학교,1.12601E+24,1126010400,1126063000,서울특별시 중랑구 동일로149길 46(묵동),675,127.075552,37.60717,206671.1395,556401.4063
935,1126000000,448,서울특별시,중랑구,묵현초등학교,1.12601E+24,1126010400,1126063000,서울특별시 중랑구 동일로157길 75(묵동),12938,127.073652,37.608984,206503.2366,556602.5651
936,1126000000,477,서울특별시,중랑구,상봉2동 복합청사,1.12601E+24,1126010200,1126059000,서울특별시 중랑구 동일로114길 10(상봉동),164,127.080977,37.593121,207151.5333,554842.4952
937,1126000000,12,서울특별시,중랑구,중화고등학교,1.12601E+24,1126010300,1126060000,서울특별시 중랑구 봉화산로27길 62(중화동),900,127.083054,37.604647,207333.8545,556121.8828
938,1126000000,461,서울특별시,중랑구,장안중학교,1.12601E+24,1126010300,1126060000,서울특별시 중랑구 동일로 780(중화동),2190,127.080726,37.60053,207128.6159,555664.8117
939,1126000000,327,서울특별시,중랑구,중곡초등학교,1.12601E+24,1126010100,1126054000,서울특별시 중랑구 면목로23길 20(면목동),786,127.083759,37.574264,207399.0632,552749.7801
940,1126000000,1,서울특별시,중랑구,면동초등학교,1.12601E+24,1126010100,1126056500,서울특별시 중랑구 면목로57길 32(면목동),3946,127.086674,37.585269,207655.4754,553971.5328
941,1126000000,445,서울특별시,중랑구,면목초등학교,1.12601E+24,1126010100,1126056500,서울특별시 중랑구 면목로 434(면목동),627,127.087486,37.590737,207726.5912,554578.389
942,1126000000,7,서울특별시,중랑구,면남초등학교,1.12601E+24,1126010100,1126057000,서울특별시 중랑구 면목로30나길 38(면목동),1484,127.088251,37.577207,207795.5601,553076.798
943,1126000000,6,서울특별시,중랑구,중화중학교,1.12601E+24,1126010100,1126057500,서울특별시 중랑구 용마산로 364(면목동),1814,127.094465,37.584521,208343.6976,553889.1567
944,1126000000,322,서울특별시,중랑구,상봉중학교,1.12601E+24,1126010200,1126058000,서울특별시 중랑구 상봉중앙로8나길 28(상봉동),555,127.090289,37.601294,207973.0493,555750.3385
945,1126000000,460,서울특별시,중랑구,신현고등학교,1.12601E+24,1126010200,1126058000,서울특별시 중랑구 봉화산로 174(상봉동),650,127.092652,37.604993,208181.3251,556161.1823
946,1130500000,67,서울특별시,강북구,미양초등학교,1.13051E+24,1130510100,1130553400,서울특별시 강북구 솔샘로 195(미아동),1161,127.01376,37.621289,201214.7554,557965.8999
947,1130500000,64,서울특별시,강북구,삼양초등학교,1.13051E+24,1130510100,1130553400,서울특별시 강북구 삼양로49길 17(미아동),7660,127.016578,37.623594,201463.4551,558221.7605
948,1130500000,69,서울특별시,강북구,강북구 보훈회관,1.13051E+24,1130510100,1130553500,서울특별시 강북구 오패산로 290-1 (미아동),294,127.02964,37.626614,202616.5398,558557.2358
949,1130500000,70,서울특별시,강북구,송중초등학교,1.13051E+24,1130510100,1130554500,서울특별시 강북구 오현로 9(미아동),904,127.031357,37.61672,202768.435,557459.1388
950,1130500000,74,서울특별시,강북구,화계초등학교,1.13051E+24,1130510100,1130554500,서울특별시 강북구 솔매로50가길 25(미아동),11242,127.029364,37.623891,202592.2058,558254.9895
951,1130500000,71,서울특별시,강북구,송중초등학교,1.13051E+24,1130510100,1130554500,서울특별시 강북구 오현로 9(미아동),457,127.030958,37.617156,202733.1817,557507.494
952,1130500000,73,서울특별시,강북구,창문여자중학교,1.13051E+24,1130510100,1130554500,서울특별시 강북구 월계로 61(미아동),2789,127.036475,37.61305,203220.4608,557052.0027
953,1130500000,76,서울특별시,강북구,성암국제무역고등학교,1.13051E+24,1130510100,1130555500,서울특별시 강북구 도봉로29길 52(미아동),288,127.024733,37.620981,202183.4587,557931.8705
954,1126000000,323,서울특별시,중랑구,용마중학교,1.12601E+24,1126010100,1126054000,서울특별시 중랑구 면목로28길 18(면목동),10469,127.085949,37.57422,207592.5442,552745.1002
955,1129000000,560,서울특별시,성북구,석관중학교,1.12901E+24,1129013900,1129081000,서울특별시 성북구 한천로 526(석관동),2176,127.066832,37.608196,205901.0857,556514.684
956,1130500000,66,서울특별시,강북구,삼양초등학교,1.13051E+24,1130510100,1130553400,서울특별시 강북구 삼양로49길 17(미아동),976,127.016564,37.623635,201462.3013,558226.2698
957,1129000000,533,서울특별시,성북구,숭인초등학교,1.12901E+24,1129013600,1129071500,서울특별시 성북구 오패산로16길 37(하월곡동),12685,127.038406,37.608936,203391.15,556595.4004
958,1129000000,555,서울특별시,성북구,숭곡중학교,1.12901E+24,1129013600,1129071500,서울특별시 성북구 종암로 208(하월곡동),11369,127.031133,37.607947,202748.9788,556485.4565
959,1129000000,556,서울특별시,성북구,서울도시과학기술고등학교,1.12901E+24,1129013600,1129071500,서울특별시 성북구 종암로 196(하월곡동),8344,127.03189,37.607328,202815.8508,556416.7035
960,1129000000,557,서울특별시,성북구,장위중학교,1.12901E+24,1129013800,1129076000,서울특별시 성북구 장위로4길 70(장위동),1983,127.041588,37.611389,203671.966,556867.7375
961,1129000000,537,서울특별시,성북구,장위초등학교,1.12901E+24,1129013800,1129077000,서울특별시 성북구 장월로8가길 41(장위동),19666,127.049827,37.612103,204399.4165,556947.4168
962,1129000000,558,서울특별시,성북구,월곡초등학교,1.12901E+24,1129013800,1129077000,서울특별시 성북구 장월로3길 42(장위동),1419,127.046394,37.60964,204096.3973,556673.9041
963,1129000000,540,서울특별시,성북구,석계초등학교,1.12901E+24,1129013900,1129081000,서울특별시 성북구 한천로58길 273(석관동),10236,127.069765,37.608609,206160.0782,556560.7187
964,1129000000,524,서울특별시,성북구,안암초등학교,1.12901E+24,1129012200,1129060000,서울특별시 성북구 고려대로7가길 39(안암동2가),1021,127.022671,37.587227,202002.3554,554185.5085
965,1129000000,552,서울특별시,성북구,정수초등학교,1.12901E+24,1129013300,1129063000,서울특별시 성북구 정릉로24길 58(정릉동),1033,127.007562,37.603699,200667.7836,556013.4619
966,1129000000,528,서울특별시,성북구,청덕초등학교,1.12901E+24,1129013300,1129064000,서울특별시 성북구 정릉로9라길 11(정릉동),14436,127.00046,37.611896,200040.6379,556923.299
967,1129000000,530,서울특별시,성북구,길음초등학교,1.12901E+24,1129013400,1129066000,서울특별시 성북구 길음로 142(길음동),12533,127.017672,37.614036,201560.3155,557160.9327
968,1129000000,553,서울특별시,성북구,길음중학교,1.12901E+24,1129013400,1129066000,서울특별시 성북구 길음로 144(길음동),6373,127.017091,37.61442,201508.9737,557203.5519
969,1129000000,531,서울특별시,성북구,길음종합사회복지관,1.12901E+24,1129013400,1129068500,서울특별시 성북구 삼양로2길 55(길음동),1756,127.024746,37.608825,202185.0177,556582.6638
970,1129000000,554,서울특별시,성북구,종암중학교,1.12901E+24,1129013500,1129070500,서울특별시 성북구 종암로5길 80-17 (종암동),1356,127.032266,37.592846,202849.6202,554809.3587
1409,1162000000,393,서울특별시,관악구,난우중학교,1.16201E+24,1162010200,1162077500,서울특별시 관악구 난곡로16길 32(신림동),766,126.92268,37.46663,193159.9345,540803.2617
1410,1165000000,1,서울특별시,서초구,서일초등학교,1.16501E+24,1165010800,1165051000,서울특별시 서초구 남부순환로339길 38(서초동),653,127.02235,37.485166,201976.7022,542857.9772
1411,1165000000,342,서울특별시,서초구,서이초등학교,1.16501E+24,1165010800,1165052000,서울특별시 서초구 서운로 35(서초동),458,127.025993,37.491606,202298.6574,543572.8051
1412,1165000000,463,서울특별시,서초구,서운중학교,1.16501E+24,1165010800,1165052000,서울특별시 서초구 서운로 115(서초동),770,127.024521,37.493983,202168.4189,543836.5938
1413,1165000000,408,서울특별시,서초구,상문고등학교,1.16501E+24,1165010100,1165053000,서울특별시 서초구 명달로 45(방배동),2100,127.004834,37.479464,200427.5656,542224.9118
1414,1165000000,405,서울특별시,서초구,신중초등학교,1.16501E+24,1165010800,1165053000,서울특별시 서초구 남부순환로317길 15(서초동),784,127.009344,37.480193,200826.4691,542305.8467
1429,1162000000,381,서울특별시,관악구,신봉초등학교,1.16201E+24,1162010100,1162061500,서울특별시 관악구 양녕로6나길 1(봉천동),868,126.949271,37.48571,195513.4143,542919.347
1430,1162000000,394,서울특별시,관악구,인헌고등학교,1.16201E+24,1162010100,1162062500,서울특별시 관악구 인헌9길 74(봉천동),794,126.970026,37.471717,197348.5664,541365.5353
1431,1162000000,383,서울특별시,관악구,신관중학교,1.16201E+24,1162010200,1162064500,서울특별시 관악구 신림로48길 17-16 (신림동),935,126.933953,37.480276,194158.2347,542317.1241
1432,1162000000,422,서울특별시,관악구,신림초등학교,1.16201E+24,1162010200,1162065500,서울특별시 관악구 문성로28길 31(신림동),630,126.927581,37.477302,193594.3644,541987.3831
1433,1162000000,18,서울특별시,관악구,남부초등학교,1.16201E+24,1162010200,1162068500,서울특별시 관악구 남부순환로163길 14(신림동),612,126.922099,37.484888,193110.2198,542829.7408
1434,1162000000,371,서울특별시,관악구,난향초등학교,1.16201E+24,1162010200,1162071500,서울특별시 관악구 난향길 9(신림동),168,126.917891,37.462102,192735.8129,540301.1349
1435,1162000000,335,서울특별시,관악구,조원초등학교,1.16201E+24,1162010200,1162072500,서울특별시 관악구 조원로 67(신림동),1271,126.90946,37.484215,191992.2594,542756.0578
1436,1162000000,363,서울특별시,관악구,삼성초등학교,1.16201E+24,1162010200,1162073500,서울특별시 관악구 대학7길 52(신림동),993,126.941029,37.468039,194783.2137,540958.5061
1437,1162000000,385,서울특별시,관악구,삼성중학교,1.16201E+24,1162010200,1162073500,서울특별시 관악구 신림로3가길 39-24 (신림동),979,126.942816,37.467871,194941.3364,540939.7862
1438,1162000000,362,서울특별시,관악구,신우초등학교,1.16201E+24,1162010200,1162074500,서울특별시 관악구 호암로 498(신림동),889,126.932425,37.462739,194021.6841,540370.7561
1439,1162000000,390,서울특별시,관악구,미성중학교,1.16201E+24,1162010200,1162076500,서울특별시 관악구 문성로16길 40(신림동),587,126.912426,37.475216,192253.6707,541757.0848
1440,1162000000,357,서울특별시,관악구,난우초등학교,1.16201E+24,1162010200,1162076500,서울특별시 관악구 난우길 40(신림동),501,126.917696,37.476578,192719.9484,541907.8104
1441,1162000000,401,서울특별시,관악구,미성체육관,1.16201E+24,1162010200,1162076500,서울특별시 관악구 난우16길 37(신림동),766,126.919309,37.477868,192862.7476,542050.8186
1442,1162000000,384,서울특별시,관악구,남서울중학교,1.16201E+24,1162010200,1162076500,서울특별시 관악구 남부순환로172길 97(신림동),863,126.921469,37.481895,193054.1899,542497.6382
1469,1165000000,466,서울특별시,서초구,심산기념문화센터,1.16501E+24,1165010700,1165057000,서울특별시 서초구 사평대로 55(반포동),917,126.99157,37.499037,199254.586,544397.2529
1470,1165000000,351,서울특별시,서초구,경원중학교,1.16501E+24,1165010600,1165058000,서울특별시 서초구 신반포로33길 39(잠원동),723,127.008875,37.510755,200784.6464,545697.8459
1471,1165000000,377,서울특별시,서초구,반원초등학교,1.16501E+24,1165010600,1165058000,서울특별시 서초구 잠원로3길 28(잠원동),374,127.003876,37.510121,200342.6766,545627.4012
1472,1165000000,11,서울특별시,서초구,방배중학교,1.16501E+24,1165010700,1165058100,서울특별시 서초구 동광로 144(반포동),99,126.998482,37.494253,199865.7714,543866.3189
1473,1165000000,473,서울특별시,서초구,반포4동주민센터,1.16501E+24,1165010700,1165058100,서울특별시 서초구 사평대로28길 70(반포동),319,127,37.5,200000,544504.1278
1474,1165000000,12,서울특별시,서초구,서래초등학교,1.16501E+24,1165010100,1165059000,서울특별시 서초구 방배로 260(방배동),682,126.989296,37.496302,199053.4589,544093.7372
1475,1165000000,472,서울특별시,서초구,방배본동주민센터,1.16501E+24,1165010100,1165059000,서울특별시 서초구 동광로19길 38(방배동),324,126.99,37.49,199115.6276,543394.3053
1476,1165000000,13,서울특별시,서초구,방일초등학교,1.16501E+24,1165010100,1165060000,서울특별시 서초구 방배로18길 52(방배동),561,126.998405,37.485397,199858.9649,542883.3595
1477,1165000000,349,서울특별시,서초구,방배초등학교,1.16501E+24,1165010100,1165062100,서울특별시 서초구 방배중앙로13길 26(방배동),726,126.987179,37.487461,198866.1052,543112.5211
1478,1165000000,467,서울특별시,서초구,서문여자고등학교,1.16501E+24,1165010100,1165062100,서울특별시 서초구 동광로12길 84(방배동),890,126.985498,37.489342,198717.5109,543321.3766
1479,1165000000,378,서울특별시,서초구,양재초등학교,1.16501E+24,1165010200,1165065100,서울특별시 서초구 바우뫼로18길 14(양재동),558,127.031911,37.474192,202822.7497,541640.3121
1480,1165000000,415,서울특별시,서초구,우면초등학교,1.16501E+24,1165010300,1165065100,서울특별시 서초구 태봉로 59(우면동),764,127.023601,37.464659,202087.9174,540582.0027
1481,1165000000,474,서울특별시,서초구,양재1동주민센터,1.16501E+24,1165010300,1165065100,서울특별시 서초구 바우뫼로 41(우면동),321,127.03,37.47,202653.8243,541174.9478
1482,1162000000,395,서울특별시,관악구,서울관광고등학교,1.16201E+24,1162010100,1162060500,서울특별시 관악구 은천로15길 25(봉천동),432,126.94377,37.487846,195027.0702,543156.6811
1498,1165000000,407,서울특별시,서초구,서울고등학교,1.16501E+24,1165010800,1165053000,서울특별시 서초구 효령로 197(서초동),2520,127.00557,37.48372,200492.6198,542697.2315
1499,1165000000,452,서울특별시,서초구,서일중학교,1.16501E+24,1165010800,1165053100,서울특별시 서초구 서운로21길 2(서초동),630,127.022184,37.499287,201961.6222,544425.1875
1500,1165000000,471,서울특별시,서초구,서초4동주민센터,1.16501E+24,1165010800,1165053100,서울특별시 서초구 서운로26길 3(서초동),871,127.02,37.5,201768.5089,544504.3157
1501,1165000000,5,서울특별시,서초구,신동초등학교,1.16501E+24,1165010600,1165054000,서울특별시 서초구 나루터로 15(잠원동),577,127.011894,37.516895,201051.4652,546379.3762
1502,1165000000,409,서울특별시,서초구,신동중학교,1.16501E+24,1165010600,1165054000,서울특별시 서초구 나루터로 27(잠원동),730,127.013202,37.516602,201167.1041,546346.8446
1503,1165000000,465,서울특별시,서초구,원촌초등학교,1.16501E+24,1165010700,1165056000,서울특별시 서초구 사평대로45길 26(반포동),555,127.012717,37.506101,201124.3857,545181.3871
1504,1165000000,476,서울특별시,서초구,반포1동주민센터,1.16501E+24,1165010700,1165056000,서울특별시 서초구 사평대로 273(반포동),239,127.01,37.51,200884.1365,545614.0461
1505,1165000000,412,서울특별시,서초구,신반포중학교,1.16501E+24,1165010700,1165057000,서울특별시 서초구 신반포로19길 26(반포동),863,126.995764,37.505971,199625.4623,545166.8091
1506,1165000000,348,서울특별시,서초구,잠원초등학교,1.16501E+24,1165010700,1165057000,서울특별시 서초구 신반포로16길 15-25 (반포동),685,126.997902,37.501954,199814.4582,544721.0152
1526,1168000000,25,서울특별시,강남구,대진초등학교,1.16801E+24,1168010300,1168074000,서울특별시 강남구 개포로109길 74(개포동),330,127.078042,37.496686,206901.2465,544139.1934
1527,1168000000,539,서울특별시,강남구,중동중학교,1.16801E+24,1168011400,1168074000,서울특별시 강남구 일원로8길 37(일원동),4150,127.078698,37.488324,206960.0064,543211.1779
1528,1174000000,334,서울특별시,강동구,강동경희대학병원,1.17401E+24,1174010300,1174052000,서울특별시 강동구 동남로 892(상일동),7954,127.15747,37.552917,213914.4924,550388.9626
1529,1174000000,438,서울특별시,강동구,상일1동주민센터,1.17401E+24,1174010300,1174052000,서울특별시 강동구 구천면로 633(상일동),225,127.165429,37.551644,214618.0964,550248.8039
1733,1168000000,330,서울특별시,강남구,대치4문화센터,1.16801E+24,1168010600,1168063000,서울특별시 강남구 도곡로77길 23(대치동),958,127.057884,37.499674,205118.4144,544469.4977
1734,1168000000,528,서울특별시,강남구,도곡초등학교,1.16801E+24,1168010600,1168063000,서울특별시 강남구 선릉로64길 33(대치동),12553,127.054468,37.499549,204816.4048,544455.5018
1735,1168000000,529,서울특별시,강남구,역삼1문화센터,1.16801E+24,1168010100,1168064000,서울특별시 강남구 역삼로7길 16(역삼동),1473,127.033266,37.495395,202941.7769,543993.5125
1824,1165000000,468,서울특별시,서초구,언남문화체육센터,1.16501E+24,1165010200,1165065200,서울특별시 서초구 동산로13길 35(양재동),330,127.043372,37.472319,203836.5887,541432.7985
1825,1165000000,475,서울특별시,서초구,양재2동주민센터,1.16501E+24,1165010200,1165065200,서울특별시 서초구 강남대로12길 44(양재동),350,127.04,37.47,203538.4324,541175.2765
1826,1165000000,446,서울특별시,서초구,언남초등학교,1.16501E+24,1165010900,1165066000,서울특별시 서초구 헌릉로8길 42(내곡동),330,127.061895,37.453963,205476.4807,539396.4242
1827,1165000000,469,서울특별시,서초구,내곡중학교,1.16501E+24,1165011100,1165066000,서울특별시 서초구 청계산로7길 9-20 (신원동),765,127.054329,37.452038,204807.1204,539182.3762
1828,1165000000,470,서울특별시,서초구,오라카이 청계산 호텔,1.16501E+24,1165011100,1165066000,서울특별시 서초구 청계산로9길 1-7 (신원동),20177,127.046963,37.462209,204154.8162,540310.8658
1829,1168000000,318,서울특별시,강남구,신구초등학교,1.16801E+24,1168010700,1168051000,서울특별시 강남구 압구정로18길 28(신사동),14793,127.023938,37.523355,202116.0494,547096.5366
1830,1168000000,522,서울특별시,강남구,신사문화센터,1.16801E+24,1168010700,1168051000,서울특별시 강남구 압구정로 128(신사동),1722,127.022793,37.52398,202014.8479,547165.8254
1831,1168000000,523,서울특별시,강남구,논현1문화센터,1.16801E+24,1168010800,1168052100,서울특별시 강남구 학동로20길 25(논현동),437,127.028512,37.511501,202520.7677,545781.0017
1832,1168000000,491,서울특별시,강남구,논현초등학교,1.16801E+24,1168010800,1168052100,서울특별시 강남구 강남대로120길 33(논현동),12078,127.026118,37.508418,202309.2347,545438.6945
1833,1168000000,520,서울특별시,강남구,논현2문화센터,1.16801E+24,1168010800,1168053100,서울특별시 강남구 학동로43길 17(논현동),1635,127.03705,37.517374,203275.3885,546433.0843
1834,1168000000,7,서울특별시,강남구,언북초등학교,1.16801E+24,1168010400,1168056500,서울특별시 강남구 삼성로135길 42(청담동),15560,127.045637,37.519989,204034.4138,546723.6411
1835,1168000000,524,서울특별시,강남구,청담중학교,1.16801E+24,1168010400,1168056500,서울특별시 강남구 압구정로61길 36(청담동),1944,127.045542,37.528518,204025.5635,547670.2639
1836,1168000000,526,서울특별시,강남구,경기고등학교,1.16801E+24,1168010500,1168058000,서울특별시 강남구 영동대로 643(삼성동),614,127.056003,37.517426,204950.9703,546439.6088
1837,1168000000,525,서울특별시,강남구,봉은초등학교,1.16801E+24,1168010500,1168058000,서울특별시 강남구 학동로 610(삼성동),2361,127.060791,37.520101,205374.0328,546736.7706
1838,1168000000,328,서울특별시,강남구,대치1문화센터,1.16801E+24,1168010600,1168060000,서울특별시 강남구 남부순환로391길 19(대치동),459,127.056771,37.493246,205020.4913,543755.9802
1839,1168000000,527,서울특별시,강남구,대명중학교,1.16801E+24,1168010600,1168061000,서울특별시 강남구 역삼로87길 26(대치동),1623,127.060388,37.506225,205339.4086,545196.7134
1943,1135000000,316,서울특별시,노원구,상계중학교,1.13501E+24,1135010500,1135064000,서울특별시 노원구 노원로 398(상계동),990,127.06858,37.652699,206051.8229,561454.2183
1944,1135000000,363,서울특별시,노원구,신상계초등학교,1.13501E+24,1135010500,1135066500,서울특별시 노원구 상계로 267(상계동),887,127.075774,37.668019,206685.3195,563154.984
1945,1135000000,336,서울특별시,노원구,계상초등학교,1.13501E+24,1135010500,1135067000,서울특별시 노원구 한글비석로41가길 24(상계동),922,127.068073,37.663084,206006.2637,562606.7695
1946,1135000000,349,서울특별시,노원구,노원중학교,1.13501E+24,1135010500,1135069500,서울특별시 노원구 동일로213길 26(상계동),788,127.059304,37.649133,205233.5604,561057.7982
1947,1135000000,364,서울특별시,노원구,상수초등학교,1.13501E+24,1135010500,1135069500,서울특별시 노원구 동일로216길 66(상계동),660,127.064412,37.651844,205684.0888,561359.009
1948,1135000000,365,서울특별시,노원구,상천초등학교,1.13501E+24,1135010500,1135069500,서울특별시 노원구 덕릉로 443(상계동),2063,127.058393,37.646393,205153.2928,560753.6866
1949,1135000000,475,서울특별시,노원구,동일초등학교,1.13501E+24,1135010500,1135070000,서울특별시 노원구 한글비석로 566(상계동),600,127.054258,37.664802,204787.2536,562796.6422
1950,1135000000,366,서울특별시,노원구,온곡초등학교,1.13501E+24,1135010500,1135071000,서울특별시 노원구 한글비석로52길 59(상계동),770,127.065596,37.667637,205787.3267,563111.9065
1951,1135000000,324,서울특별시,노원구,상곡초등학교,1.13501E+24,1135010500,1135072000,서울특별시 노원구 노원로38길 34(상계동),914,127.062281,37.662731,205495.2913,562567.2559
1952,1138000000,358,서울특별시,은평구,은평초등학교,1.13801E+24,1138010200,1138051000,서울특별시 은평구 은평로 239(녹번동),862,126.934935,37.601828,194254.4572,555807.7507
1953,1138000000,359,서울특별시,은평구,불광1동주민센터,1.13801E+24,1138010300,1138052000,서울특별시 은평구 진흥로15길 10(불광동),181,126.932052,37.61031,194000.5484,556749.4401
1954,1138000000,389,서울특별시,은평구,서울 수리초등학교 본관동,1.13801E+24,1138010300,1138052000,서울특별시 은평구 불광로14길 10-10 (불광동),585,126.934043,37.620334,194177.1267,557861.8541
1955,1138000000,391,서울특별시,은평구,연천중학교,1.13801E+24,1138010300,1138053000,서울특별시 은평구 연서로41길 30(불광동),998,126.925801,37.627526,193450.1316,558660.6564
1956,1130500000,77,서울특별시,강북구,삼각산중학교,1.13051E+24,1130510100,1130557500,서울특별시 강북구 삼양로19길 141(미아동),1181,127.014849,37.615966,201311.0394,557375.0398
1957,1135000000,362,서울특별시,노원구,노일초등학교,1.13501E+24,1135010500,1135063000,서울특별시 노원구 동일로 1625(상계동),1573,127.054614,37.67269,204818.1,563672.1425
1958,1141000000,2,서울특별시,서대문구,금화초등학교,1.14101E+24,1141010600,1141052000,서울특별시 서대문구 통일로 165(천연동),550,126.963188,37.568651,196747.8941,552124.2046
1959,1135000000,346,서울특별시,노원구,녹천초등학교,1.13501E+24,1135010200,1135058000,서울특별시 노원구 마들로3길 34(월계동),720,127.063246,37.628931,205582.9585,558815.8476
1960,1135000000,358,서울특별시,노원구,녹천중학교,1.13501E+24,1135010200,1135058000,서울특별시 노원구 월계로 376(월계동),1117,127.062212,37.631519,205491.4645,559103.0596
1961,1135000000,307,서울특별시,노원구,용원초등학교,1.13501E+24,1135010300,1135059500,서울특별시 노원구 섬밭로 144(공릉동),1227,127.068968,37.629914,206087.937,558925.3438
1962,1135000000,328,서울특별시,노원구,공릉중학교,1.13501E+24,1135010300,1135060000,서울특별시 노원구 노원로1길 42(공릉동),2395,127.083575,37.62217,207378.0841,558066.8751
1963,1135000000,354,서울특별시,노원구,불암중학교,1.13501E+24,1135010400,1135061100,서울특별시 노원구 한글비석로5길 45(하계동),877,127.07376,37.646019,206509.5684,560713.1229
1964,1135000000,347,서울특별시,노원구,중평초등학교,1.13501E+24,1135010400,1135061200,서울특별시 노원구 섬밭로 241(하계동),608,127.063758,37.637522,205627.4898,559769.3718
1965,1135000000,359,서울특별시,노원구,중평중학교,1.13501E+24,1135010400,1135061200,서울특별시 노원구 동일로203길 87(하계동),899,127.06235,37.637007,205503.2534,559712.1363
1966,1135000000,489,서울특별시,노원구,원광초등학교,1.13501E+24,1135010600,1135062100,서울특별시 노원구 덕릉로76길 18(중계동),1223,127.074507,37.653906,206574.7548,561588.5167
1967,1135000000,348,서울특별시,노원구,상계제일중학교,1.13501E+24,1135010600,1135062400,서울특별시 노원구 덕릉로86길 29-15 (중계동),396,127.0778,37.661678,206864.6794,562451.3717
1968,1135000000,313,서울특별시,노원구,용동초등학교,1.13501E+24,1135010600,1135062500,서울특별시 노원구 한글비석로1길 81-11 (중계동),504,127.069097,37.641117,206098.3926,560168.69
1969,1135000000,332,서울특별시,노원구,중원초등학교,1.13501E+24,1135010600,1135062500,서울특별시 노원구 섬밭로 316(중계동),1366,127.062526,37.643875,205518.2922,560474.404
1970,1135000000,361,서울특별시,노원구,청계초등학교,1.13501E+24,1135010600,1135062500,서울특별시 노원구 공릉로 431(중계동),1801,127.065899,37.644988,205815.8383,560598.1793
1971,1138000000,320,서울특별시,은평구,증산중학교 다목적강당,1.13801E+24,1138011000,1138064000,서울특별시 은평구 증산로5길 27-30 (증산동),2001,126.904132,37.583636,191532.282,553791.0518
1972,1138000000,370,서울특별시,은평구,증산동주민센터,1.13801E+24,1138011000,1138064000,서울특별시 은평구 증산서길 89(증산동),83,126.907027,37.584342,191788.0814,553869.0717
1973,1138000000,395,서울특별시,은평구,증산초등학교 체육관,1.13801E+24,1138011000,1138064000,서울특별시 은평구 증산서길 61(증산동),594,126.904182,37.582672,191536.5937,553684.0797
1974,1138000000,21,서울특별시,은평구,수색초등학교,1.13801E+24,1138010100,1138065000,서울특별시 은평구 수색로16길 21(수색동),926,126.895562,37.585035,190775.4917,553947.1608
1975,1138000000,371,서울특별시,은평구,수색동 주민센터,1.13801E+24,1138010100,1138065000,서울특별시 은평구 수색로 280(수색동),168,126.89377,37.583336,190617.0237,553758.7108
1976,1138000000,372,서울특별시,은평구,진관동 주민센터,1.13801E+24,1138011400,1138069000,서울특별시 은평구 진관2로 31(진관동),174,126.920894,37.635031,193017.6364,559493.9612
1977,1138000000,396,서울특별시,은평구,은평다목적체육관,1.13801E+24,1138011400,1138069000,서울특별시 은평구 진관1로 40(진관동),2125,126.924875,37.631253,193368.6875,559074.2905
1978,1138000000,400,서울특별시,은평구,보훈회관,1.13801E+24,1138011400,1138069000,서울특별시 은평구 진관2로 31(진관동),52,126.920754,37.634968,193005.2599,559486.9327
1979,1138000000,368,서울특별시,은평구,역촌동 주민센터,1.13801E+24,1138010800,1138062500,서울특별시 은평구 연서로 59(역촌동),425,126.915104,37.604424,192503.472,556097.3265
1980,1138000000,318,서울특별시,은평구,덕산중학교 체육관,1.13801E+24,1138010900,1138063100,서울특별시 은평구 가좌로 400(신사동),600,126.904315,37.602008,191550.4897,555830.1487
1981,1138000000,369,서울특별시,은평구,신사1동주민센터,1.13801E+24,1138010900,1138063100,서울특별시 은평구 은평로2길 2(신사동),207,126.91183,37.597834,192213.6697,555366.1867
1982,1138000000,353,서울특별시,은평구,신사2동주민센터,1.13801E+24,1138010900,1138063200,서울특별시 은평구 증산로15길 47(신사동),146,126.908387,37.59026,191908.8215,554525.8682
1983,1144000000,229,서울특별시,마포구,아현동주민센터,1.14401E+24,1144010200,1144055500,서울특별시 마포구 마포대로7길 18(공덕동),109,126.952196,37.54711,195775.5414,549733.8653
1984,1144000000,30,서울특별시,마포구,소의초등학교,1.14401E+24,1144010100,1144056500,서울특별시 마포구 마포대로24길 42(아현동),401,126.960844,37.552191,196540.0678,550297.3485
1985,1144000000,226,서울특별시,마포구,마포문화원,1.14401E+24,1144010300,1144056500,서울특별시 마포구 백범로 227(신공덕동),116,126.955404,37.54221,196058.8341,549189.8742
1986,1144000000,213,서울특별시,마포구,도화동주민센터,1.14401E+24,1144010400,1144058500,서울특별시 마포구 도화길 37(도화동),398,126.949919,37.541471,195574.0155,549108.066
1987,1138000000,390,서울특별시,은평구,연신중학교,1.13801E+24,1138010300,1138053000,서울특별시 은평구 연서로33길 16-32 (불광동),808,126.924953,37.623703,193374.9254,558236.3279
1988,1138000000,337,서울특별시,은평구,서광교회,1.13801E+24,1138010400,1138055100,서울특별시 은평구 통일로 951(갈현동),1167,126.919281,37.627767,192874.5812,558687.8
1989,1138000000,343,서울특별시,은평구,갈현2동주민센터,1.13801E+24,1138010400,1138055200,서울특별시 은평구 연서로27길 31-6 (갈현동),154,126.915793,37.618498,192565.7424,557659.2822
1990,1138000000,399,서울특별시,은평구,광현교회,1.13801E+24,1138010400,1138055200,서울특별시 은평구 연서로27길 31-7 (갈현동),1079,126.916084,37.618407,192591.4253,557649.1636
1991,1138000000,8,서울특별시,은평구,구산초등학교,1.13801E+24,1138010500,1138056000,서울특별시 은평구 서오릉로15길 16(구산동),615,126.909092,37.61229,191973.4631,556970.8494
1992,1138000000,362,서울특별시,은평구,구산동주민센터,1.13801E+24,1138010500,1138056000,서울특별시 은평구 갈현로17길 10(구산동),160,126.91036,37.611767,192085.3357,556912.69
1993,1138000000,392,서울특별시,은평구,은평중학교,1.13801E+24,1138010500,1138056000,서울특별시 은평구 갈현로17나길 12-1 (구산동),540,126.9086,37.610674,191929.8687,556791.5842
1994,1138000000,393,서울특별시,은평구,대은초등학교,1.13801E+24,1138010600,1138057000,서울특별시 은평구 통일로69길 12-15 (대조동),1000,126.925892,37.612095,193456.7921,556947.9706
1995,1138000000,375,서울특별시,은평구,은명초등학교,1.13801E+24,1138010700,1138058000,서울특별시 은평구 은평로4길 21-9 (응암동),727,126.918631,37.597628,192814.3026,555342.7941
1996,1138000000,364,서울특별시,은평구,응암2동주민센터,1.13801E+24,1138010700,1138059000,서울특별시 은평구 백련산로 100(응암동),198,126.923077,37.594588,193206.6472,555005.0171
1997,1138000000,376,서울특별시,은평구,연은초등학교 본관동,1.13801E+24,1138010700,1138059000,서울특별시 은평구 백련산로2길 35(응암동),10568,126.925198,37.590445,193393.5521,554545.0115
1998,1138000000,15,서울특별시,은평구,응암초등학교 본관동,1.13801E+24,1138010700,1138060000,서울특별시 은평구 가좌로6길 20(응암동),15274,126.921763,37.588406,193090.0075,554319.0136
2166,1171000000,371,서울특별시,송파구,송파여성문화회관,1.17101E+24,1171010400,1171058000,서울특별시 송파구 백제고분로42길 5(송파동),13405,127.109782,37.505901,209706.7358,545164.7178
2167,1171000000,366,서울특별시,송파구,서울중대초등학교,1.17101E+24,1171010400,1171059000,서울특별시 송파구 송파대로36길 8(송파동),8711,127.11371,37.500104,210054.8229,544521.7266
2168,1171000000,342,서울특별시,송파구,서울석촌초등학교,1.17101E+24,1171010500,1171060000,서울특별시 송파구 가락로11길 26(석촌동),8292,127.104776,37.502551,209264.5496,544792.4162
2169,1171000000,343,서울특별시,송파구,서울삼전초등학교,1.17101E+24,1171010600,1171061000,서울특별시 송파구 백제고분로28길 19(삼전동),9927,127.092589,37.501442,208187.0944,544668.1539
2170,1171000000,344,서울특별시,송파구,서울신가초등학교,1.17101E+24,1171010700,1171062000,서울특별시 송파구 송이로 75(가락동),6233,127.121311,37.500721,210726.8347,544591.0492
2171,1171000000,491,서울특별시,송파구,서울가락초등학교,1.17101E+24,1171010700,1171063100,서울특별시 송파구 송파대로37길 45(가락동),7106,127.107652,37.500183,209519.1223,544529.8613
2172,1171000000,484,서울특별시,송파구,송파중학교,1.17101E+24,1171010700,1171063200,서울특별시 송파구 동남로 203(가락동),16306,127.129326,37.496277,211436.3049,544098.7675
2173,1171000000,347,서울특별시,송파구,서울문정초등학교,1.17101E+24,1171010800,1171064100,서울특별시 송파구 문정로5길 20(문정동),7825,127.12872,37.488915,211383.8399,543281.5813
2174,1171000000,348,서울특별시,송파구,서울가원초등학교,1.17101E+24,1171010800,1171064200,서울특별시 송파구 중대로4길 8(문정동),7247,127.114122,37.488513,210092.8677,543235.3805
2175,1171000000,416,서울특별시,송파구,서울문덕초등학교,1.17101E+24,1171010800,1171064600,서울특별시 송파구 송이로34길 60(문정동),3456,127.127596,37.484993,211284.9762,542846.2409
2176,1171000000,372,서울특별시,송파구,문현중학교,1.17101E+24,1171010900,1171064600,서울특별시 송파구 충민로 99(장지동),3598,127.127675,37.480571,211292.6481,542355.4746
2177,1171000000,485,서울특별시,송파구,서울문현초등학교,1.17101E+24,1171010900,1171064600,서울특별시 송파구 충민로 137(장지동),5692,127.130087,37.482711,211505.6577,542593.2084
2178,1171000000,486,서울특별시,송파구,서울송례초등학교,1.17101E+24,1171010900,1171064700,서울특별시 송파구 위례순환로 439(장지동),6543,127.138444,37.477873,212245.5868,542057.3351
2179,1171000000,368,서울특별시,송파구,서울잠신초등학교,1.17101E+24,1171010100,1171067000,서울특별시 송파구 잠실로 32(잠실동),6960,127.08842,37.514341,207817.1192,546099.5145
2180,1168000000,15,서울특별시,강남구,도성초등학교,1.16801E+24,1168010100,1168065000,서울특별시 강남구 역삼로 313(역삼동),2225,127.049183,37.500908,204349.0159,544606.0259
2181,1168000000,530,서울특별시,강남구,역삼중학교,1.16801E+24,1168010100,1168065000,서울특별시 강남구 도곡로43길 10(역삼동),2424,127.048597,37.49595,204297.4453,544055.7231
2182,1168000000,16,서울특별시,강남구,언주초등학교,1.16801E+24,1168011800,1168065500,서울특별시 강남구 남부순환로363길 19(도곡동),20086,127.037033,37.486646,203275.2267,543022.6527
2183,1168000000,542,서울특별시,강남구,도곡1문화센터,1.16801E+24,1168011800,1168065500,서울특별시 강남구 도곡로18길 57(도곡동),183,127.038872,37.488371,203437.799,543214.115
1920,1165000000,450,서울특별시,서초구,언남중학교,1.16501E+24,1165010200,1165065200,서울특별시 서초구 동산로 55(양재동),590,127.044113,37.472535,203902.1338,541456.7354
1921,1165000000,457,서울특별시,서초구,매헌초등학교,1.16501E+24,1165010200,1165065200,서울특별시 서초구 언남길 8(양재동),665,127.042031,37.471242,203718.056,541313.2244
1932,1132000000,130,서울특별시,도봉구,효문고등학교,1.13201E+24,1132010500,1132066000,서울특별시 도봉구 우이천로 432(쌍문동),3164,127.018175,37.652557,201603.8977,561436.3563
1933,1130500000,78,서울특별시,강북구,삼각산초등학교,1.13051E+24,1130510100,1130557500,서울특별시 강북구 삼양로19길 141(미아동),751,127.014881,37.616042,201313.813,557383.5243
1934,1130500000,99,서울특별시,강북구,강북웰빙스포츠센터,1.13051E+24,1130510200,1130560300,서울특별시 강북구 오현로31길 51(번동),1166,127.037858,37.630664,203341.7385,559006.9685
1935,1130500000,96,서울특별시,강북구,인수초등학교,1.13051E+24,1130510300,1130566000,서울특별시 강북구 인수봉로 269(수유동),764,127.010312,37.642795,200910.0995,560352.8038
1936,1130500000,97,서울특별시,강북구,우이초등학교,1.13051E+24,1130510300,1130566000,서울특별시 강북구 삼양로99길 36(수유동),1469,127.015252,37.638562,201346.1609,559883.0327
1937,1132000000,147,서울특별시,도봉구,자운고등학교,1.13201E+24,1132010700,1132051400,서울특별시 도봉구 노해로69길 150(창동),13369,127.050673,37.659092,204471.2315,562162.6906
1938,1132000000,146,서울특별시,도봉구,서울자운초등학교,1.13201E+24,1132010700,1132051400,서울특별시 도봉구 마들로13길 166(창동),10224,127.046564,37.657611,204108.8061,561998.1975
1939,1132000000,149,서울특별시,도봉구,서울창원초등학교,1.13201E+24,1132010700,1132051500,서울특별시 도봉구 해등로 103(창동),6874,127.040591,37.652357,203581.9824,561414.8235
1940,1132000000,148,서울특별시,도봉구,서울가인초등학교,1.13201E+24,1132010700,1132051500,서울특별시 도봉구 도봉로136다길 4(창동),9751,127.043535,37.660099,203841.4082,562274.1724
1941,1132000000,151,서울특별시,도봉구,서울오봉초등학교,1.13201E+24,1132010800,1132052100,서울특별시 도봉구 시루봉로 285(도봉동),7673,127.040358,37.671664,203560.5069,563557.7016
1942,1132000000,153,서울특별시,도봉구,누원고등학교,1.13201E+24,1132010800,1132052200,서울특별시 도봉구 마들로 849(도봉동),783,127.049976,37.685527,204408.2083,565096.715
2184,1168000000,532,서울특별시,강남구,대도초등학교,1.16801E+24,1168011800,1168065600,서울특별시 강남구 선릉로 209(도곡동),1861,127.052832,37.492723,204672.1165,543697.7712
2214,1171000000,476,서울특별시,송파구,서울방이초등학교,1.17101E+24,1171011100,1171056100,서울특별시 송파구 위례성대로10길 4(방이동),8198,127.120814,37.513036,210681.1903,545957.8271
2215,1171000000,479,서울특별시,송파구,방산고등학교,1.17101E+24,1171011100,1171056100,서울특별시 송파구 오금로27길 18(방이동),8849,127.120555,37.508447,210658.9128,545448.5003
2216,1171000000,480,서울특별시,송파구,오륜중학교,1.17101E+24,1171011100,1171056600,서울특별시 송파구 양재대로 1242(방이동),2851,127.1389,37.516352,212279.6441,546328.0571
2217,1171000000,370,서울특별시,송파구,서울개롱초등학교,1.17101E+24,1171011200,1171057000,서울특별시 송파구 문정로 211(오금동),3697,127.139664,37.497183,212350.3281,544200.6003
2218,1171000000,482,서울특별시,송파구,세륜중학교,1.17101E+24,1171011200,1171057000,서울특별시 송파구 양재대로72길 41(오금동),5494,127.131848,37.508372,211657.3915,545441.4565
2219,1171000000,340,서울특별시,송파구,서울송파초등학교,1.17101E+24,1171010400,1171058000,서울특별시 송파구 백제고분로 400(송파동),12140,127.110752,37.507053,209792.3593,545292.6678
2308,1174000000,357,서울특별시,강동구,강명초등학교,1.17401E+24,1174010300,1174051500,서울특별시 강동구 상일로 74-1 (상일동),3971,127.173533,37.554669,215333.5736,550585.8796
2309,1174000000,304,서울특별시,강동구,고명초등학교,1.17401E+24,1174010100,1174053000,서울특별시 강동구 고덕로46길 53(명일동),817,127.146865,37.55265,212977.4607,550357.7287
2310,1174000000,305,서울특별시,강동구,대명초등학교,1.17401E+24,1174010100,1174054000,서울특별시 강동구 상암로 271(명일동),750,127.15329,37.547137,213546.2047,549746.7911
2311,1174000000,436,서울특별시,강동구,명원초등학교,1.17401E+24,1174010100,1174054000,서울특별시 강동구 명일로 364(명일동),650,127.150382,37.551343,213288.5251,550213.1709
2312,1174000000,360,서울특별시,강동구,명덕초등학교,1.17401E+24,1174010200,1174055000,서울특별시 강동구 양재대로156길 11(고덕동),498,127.146058,37.556958,212905.4411,550835.8035
2313,1174000000,435,서울특별시,강동구,묘곡초등학교,1.17401E+24,1174010200,1174055000,서울특별시 강동구 동남로79길 46(고덕동),833,127.15317,37.558963,213533.4599,551059.3284
2245,1174000000,440,서울특별시,강동구,고덕1동주민센터,1.17401E+24,1174010200,1174055000,서울특별시 강동구 양재대로156길 123(고덕동),135,127.152536,37.555477,213478.0983,550672.3424
2246,1174000000,342,서울특별시,강동구,온조대왕문화체육관,1.17401E+24,1174010200,1174056000,서울특별시 강동구 고덕로 285(고덕동),7954,127.158885,37.558132,214038.5444,550967.9542
2247,1174000000,341,서울특별시,강동구,서울컨벤션고등학교,1.17401E+24,1174010200,1174056000,서울특별시 강동구 동남로 964(고덕동),14629,127.15821,37.560001,213978.6073,551175.3074
2248,1174000000,343,서울특별시,강동구,고덕중학교,1.17401E+24,1174010200,1174056000,서울특별시 강동구 동남로82길 94(고덕동),2048,127.161297,37.559984,214251.3758,551173.8332
2249,1174000000,311,서울특별시,강동구,명일초등학교,1.17401E+24,1174010700,1174057000,서울특별시 강동구 고덕로38길 8(암사동),1171,127.142029,37.553844,212549.9969,550489.612
2293,1174000000,320,서울특별시,강동구,서울제일교회,1.17401E+24,1174010800,1174066000,서울특별시 강동구 강동대로53길 53(성내동),331,127.132174,37.525277,211683.5728,547317.8116
2294,1174000000,339,서울특별시,강동구,강동성심병원,1.17401E+24,1174010500,1174068500,서울특별시 강동구 성안로 150(길동),15504,127.135233,37.536141,211952.2955,548523.8898
2295,1174000000,361,서울특별시,강동구,신명초등학교,1.17401E+24,1174010500,1174068500,서울특별시 강동구 명일로24길 33(길동),1006,127.149629,37.541477,213223.7007,549118.098
2296,1174000000,433,서울특별시,강동구,천동초등학교,1.17401E+24,1174010500,1174068500,서울특별시 강동구 성안로 200(길동),572,127.137699,37.540781,212169.4565,549039.1641
2297,1174000000,443,서울특별시,강동구,길동주민센터,1.17401E+24,1174010500,1174068500,서울특별시 강동구 천호대로 1183(길동),190,127.142646,37.534671,212607.6802,548361.6923
2298,1174000000,325,서울특별시,강동구,선린초등학교,1.17401E+24,1174010600,1174070000,서울특별시 강동구 진황도로61길 29(둔촌동),1650,127.145749,37.529262,212882.8707,547761.7646
2299,1171000000,487,서울특별시,송파구,서울잠일초등학교,1.17101E+24,1171010100,1171067000,서울특별시 송파구 올림픽로 95(잠실동),13722,127.081637,37.51465,207217.3657,546133.1744
2300,1171000000,379,서울특별시,송파구,서울송전초등학교,1.17101E+24,1171010100,1171068000,서울특별시 송파구 석촌호수로 159(잠실동),1639,127.094811,37.508447,208382.7374,545445.8445
2301,1171000000,374,서울특별시,송파구,영동일고등학교,1.17101E+24,1171010100,1171068000,서울특별시 송파구 석촌호수로 93(잠실동),5320,127.089516,37.509671,207914.4595,545581.301
2302,1171000000,329,서울특별시,송파구,서울잠실초등학교,1.17101E+24,1171010200,1171069000,서울특별시 송파구 올림픽로35길 20(신천동),2758,127.111446,37.520124,209851.9883,546743.4492
2303,1174000000,301,서울특별시,강동구,강일초등학교,1.17401E+24,1174011000,1174051500,서울특별시 강동구 아리수로98길 24(강일동),13645,127.16842,37.546242,214883.4337,549649.7188
2304,1174000000,332,서울특별시,강동구,강일동주민센터,1.17401E+24,1174011000,1174051500,서울특별시 강동구 아리수로93길 9-14 (강일동),645,127.178207,37.568905,215743.5234,552166.6645
2305,1174000000,363,서울특별시,강동구,강동중학교,1.17401E+24,1174011000,1174051500,서울특별시 강동구 풍산로 237(강일동),8896,127.177744,37.569966,215702.4273,552284.3525
2306,1174000000,368,서울특별시,강동구,강일고등학교,1.17401E+24,1174011000,1174051500,서울특별시 강동구 아리수로98길 40(강일동),11112,127.177464,37.564236,215678.8817,551648.2832
2307,1174000000,364,서울특별시,강동구,강명중학교,1.17401E+24,1174011000,1174051500,서울특별시 강동구 상일로12길 56(상일동),2670,127.174846,37.555556,215449.3838,550684.5622
1999,1138000000,394,서울특별시,은평구,서문교회,1.13801E+24,1138010700,1138060000,서울특별시 은평구 가좌로10길 10(응암동),198,126.916739,37.591613,192646.5933,554675.2672
2000,1141000000,31,서울특별시,서대문구,인왕중학교,1.14101E+24,1141011100,1141064000,서울특별시 서대문구 세검정로4길 69(홍제동),816,126.952043,37.59278,195764.5997,554802.6286
2001,1141000000,40,서울특별시,서대문구,홍은중학교,1.14101E+24,1141011100,1141064000,서울특별시 서대문구 세검정로 105(홍제동),586,126.949603,37.59762,195549.4307,555339.9663
2002,1141000000,43,서울특별시,서대문구,인왕초등학교,1.14101E+24,1141011100,1141064000,서울특별시 서대문구 세무서길 33-9 (홍제동),477,126.94521,37.590504,195161.0232,554550.3871
2003,1141000000,15,서울특별시,서대문구,홍제초등학교,1.14101E+24,1141011800,1141066000,서울특별시 서대문구 홍은중앙로 13(홍은동),2691,126.944641,37.593062,195110.9779,554834.2759
2004,1141000000,17,서울특별시,서대문구,홍연초등학교 체육관,1.14101E+24,1141011800,1141068500,서울특별시 서대문구 백련사길 55(홍은동),560,126.931055,37.581708,193910.1698,553574.9275
2005,1141000000,58,서울특별시,서대문구,서대문문화체육회관,1.14101E+24,1141011800,1141068500,서울특별시 서대문구 백련사길 39(홍은동),508,126.931731,37.58094,193969.813,553489.6657
2006,1141000000,57,서울특별시,서대문구,남가좌1동주민센터,1.14101E+24,1141012000,1141069000,서울특별시 서대문구 모래내로15길 37(남가좌동),100,126.919834,37.573246,192918.1905,552636.5292
2007,1141000000,36,서울특별시,서대문구,명지대방목학술정보관,1.14101E+24,1141012000,1141070000,서울특별시 서대문구 거북골로 34(남가좌동),4030,126.921374,37.580354,193054.9414,553425.2961
2008,1141000000,20,서울특별시,서대문구,북가좌초등학교,1.14101E+24,1141011900,1141071000,서울특별시 서대문구 거북골로19길 20(북가좌동),891,126.907642,37.577146,191841.5867,553070.413
2009,1141000000,41,서울특별시,서대문구,가재울중학교,1.14101E+24,1141011900,1141071000,서울특별시 서대문구 수색로 100-75 (북가좌동),601,126.909842,37.575387,192035.7598,552874.9821
2010,1141000000,42,서울특별시,서대문구,가재울고등학교,1.14101E+24,1141011900,1141071000,서울특별시 서대문구 수색로 100-35 (북가좌동),556,126.909506,37.574311,192005.9637,552755.5871
2011,1144000000,3,서울특별시,마포구,아현초등학교,1.14401E+24,1144010100,1144055500,서울특별시 마포구 굴레방로 6(아현동),1782,126.957095,37.556588,196208.9349,550785.5842
2012,1144000000,236,서울특별시,마포구,아현문화건강센터,1.14401E+24,1144010100,1144055500,서울특별시 마포구 마포대로11길 44-81 (아현동),179,126.952034,37.55175,195761.4989,550248.8545
2013,1141000000,22,서울특별시,서대문구,홍제3동주민센터,1.14101E+24,1141011100,1141064000,서울특별시 서대문구 세검정로4길 32(홍제동),100,126.949763,37.593763,195563.3172,554911.8437
2051,1141000000,38,서울특별시,서대문구,연북중학교,1.14101E+24,1141011700,1141061500,서울특별시 서대문구 연희로36길 32(연희동),836,126.937728,37.577819,194499.29,553142.908
2052,1141000000,35,서울특별시,서대문구,안산초등학교,1.14101E+24,1141011100,1141062000,서울특별시 서대문구 통일로 321(홍제동),1013,126.944031,37.585068,195056.5052,553947.1661
2053,1141000000,7,서울특별시,서대문구,창서초등학교,1.14101E+24,1141011600,1141058500,서울특별시 서대문구 연세로5나길 30-3 (창천동),615,126.933965,37.557612,194165.3041,550900.3937
2054,1141000000,9,서울특별시,서대문구,연희초등학교,1.14101E+24,1141011700,1141061500,서울특별시 서대문구 연희로 136(연희동),865,126.933892,37.56919,194159.787,552185.4546
2055,1168000000,531,서울특별시,강남구,대치중학교,1.16801E+24,1168011800,1168065600,서울특별시 강남구 남부순환로378길 39(도곡동),1006,127.047462,37.484604,204197.7295,542796.4316
2056,1168000000,533,서울특별시,강남구,구룡중학교,1.16801E+24,1168010300,1168066000,서울특별시 강남구 선릉로 103(개포동),1129,127.055745,37.486102,204930.2024,542963.0936
2057,1168000000,534,서울특별시,강남구,양전초등학교,1.16801E+24,1168010300,1168067000,서울특별시 강남구 개포로 513(개포동),1897,127.069121,37.490257,206112.8637,543425.0228
2058,1168000000,535,서울특별시,강남구,개원중학교,1.16801E+24,1168010300,1168067000,서울특별시 강남구 영동대로 101(개포동),2034,127.071735,37.49172,206343.9009,543587.544
2059,1168000000,21,서울특별시,강남구,포이초등학교,1.16801E+24,1168010300,1168069000,서울특별시 강남구 개포로22길 87(개포동),12490,127.052878,37.476029,204677.2551,541844.9994
2060,1168000000,536,서울특별시,강남구,구룡초등학교,1.16801E+24,1168010300,1168069000,서울특별시 강남구 개포로 263(개포동),1810,127.052053,37.481323,204603.9507,542432.5376
2061,1168000000,540,서울특별시,강남구,세명초등학교,1.16801E+24,1168011100,1168070000,서울특별시 강남구 자곡로 55(세곡동),13416,127.09134,37.468935,208080.0842,541060.2525
2062,1168000000,543,서울특별시,강남구,세곡문화센터,1.16801E+24,1168011300,1168070000,서울특별시 강남구 밤고개로 286(율현동),429,127.106959,37.469043,209461.8336,541073.6304
2063,1168000000,537,서울특별시,강남구,서울로봇고등학교,1.16801E+24,1168011400,1168072000,서울특별시 강남구 광평로20길 63(일원동),2079,127.084708,37.480634,207492.2782,542358.1142
2064,1168000000,538,서울특별시,강남구,영희초등학교,1.16801E+24,1168011400,1168073000,서울특별시 강남구 일원로 21(일원동),5592,127.081001,37.492273,207163.2642,543649.5912
2065,1168000000,541,서울특별시,강남구,수서중학교,1.16801E+24,1168011500,1168075000,서울특별시 강남구 광평로59길 57(수서동),2550,127.102389,37.491066,209054.8285,543517.4391
2066,1171000000,478,서울특별시,송파구,풍성중학교,1.17101E+24,1171010300,1171052000,서울특별시 송파구 강동대로2길 27(풍납동),9578,127.113067,37.525367,209994.5882,547325.5
2067,1171000000,477,서울특별시,송파구,서울토성초등학교,1.17101E+24,1171010300,1171052000,서울특별시 송파구 풍성로20길 44(풍납동),3248,127.115853,37.532112,210240.0015,548074.4913
2068,1171000000,369,서울특별시,송파구,송파구체육문화회관,1.17101E+24,1171011300,1171053100,서울특별시 송파구 양산로 15(거여동),2461,127.142825,37.490627,212630.9804,543473.4633
2069,1171000000,472,서울특별시,송파구,서울영풍초등학교,1.17101E+24,1171011300,1171053100,서울특별시 송파구 오금로57길 15(거여동),5996,127.143163,37.496081,212659.908,544078.8029
2073,1141000000,23,서울특별시,서대문구,아현감리교회,1.14101E+24,1141011000,1141055500,서울특별시 서대문구 신촌로 293(북아현동),786,126.95873,37.557683,196353.5122,550907.0704
2074,1141000000,62,서울특별시,서대문구,북아현문화체육센터,1.14101E+24,1141011000,1141056500,서울특별시 서대문구 북아현로 51(북아현동),1555,125,35,17410.87081,268923.188
2075,1141000000,54,서울특별시,서대문구,대신초등학교,1.14101E+24,1141011200,1141058500,서울특별시 서대문구 이화여대2길 27(대현동),224,126.947618,37.558042,195371.6753,550947.3898
2076,1144000000,243,서울특별시,마포구,라뉘호텔,1.14401E+24,1144011000,1144060000,서울특별시 마포구 서강로20길 20(노고산동),4960,126.936153,37.55355,194358.317,550449.4432
2077,1144000000,211,서울특별시,마포구,한서초등학교,1.14401E+24,1144010900,1144061000,서울특별시 마포구 대흥로24바길 27(염리동),576,126.949273,37.553472,195517.6429,550440.0629
