시설번호,년도,지역코드,시설유형,쉼터명칭,도로명주소,지번상세주소,면적,이용가능인원,선풍기보유대수,에어컨보유대수,야간개방,휴일개방,숙박가능여부,입력시간,수정시간,사용여부,비고,운영시작일,운영종료일,경도,위도,X좌표,Y좌표
1162000280,2023,1162071500,1,휴먼시아(아)4경로당,서울특별시 관악구 난곡로 55,서울특별시 관악구 신림동 1735,73,9,4,1,Y,Y,N,2023.7.31 13:59,2023.7.31 13:59,Y,,20230520,20230930,126.919034,37.459103,192836.642,539968.1807
1162000281,2023,1162071500,1,국회단지경로당,서울특별시 관악구 난향9길 59-1 ,서울특별시 관악구 신림동 675-330,206,26,4,2,Y,Y,N,2023.7.31 13:59,2023.7.31 13:59,Y,,20230520,20230930,126.91497,37.460303,192477.2052,540101.681
1162000282,2023,1162071500,1,신림SH빌(아)경로당,서울특별시 관악구 난곡로 80,서울특별시 관악구 신림동 1736-1,64,8,2,2,Y,Y,N,2023.7.31 13:59,2023.7.31 13:59,Y,,20230520,20230930,126.919834,37.46242,192907.7342,540336.2618
1162000283,2023,1162071500,1,휴먼시아(아)5경로당,서울특별시 관악구 난곡로 55,서울특별시 관악구 신림동 1735,70,9,3,1,Y,Y,N,2023.7.31 13:59,2023.7.31 13:59,Y,,20230520,20230930,126.91863,37.458191,192800.8112,539866.992
1162000284,2023,1162071500,1,휴먼시아(아)3경로당,서울특별시 관악구 난곡로 55,서울특별시 관악구 신림동 1735,68,9,2,1,Y,Y,N,2023.7.31 13:59,2023.7.31 13:59,Y,,20230520,20230930,126.921091,37.458456,193018.5722,539896.2181
1162000285,2023,1162071500,1,대우신림2차푸르지오(아)경로당,서울특별시 관악구 난곡로 66,서울특별시 관악구 신림동 1736,117,15,3,2,Y,Y,N,2023.7.31 13:59,2023.7.31 13:59,Y,,20230520,20230930,126.919748,37.461311,192900.0209,540213.1844
11620174,2023,1162071000,5,난향동주민센터,서울특별시 관악구 난곡로 67,서울특별시 관악구 신림동 1735-5,698,56,2,3,Y,Y,Y,2023.7.31 13:59,2023.7.31 13:59,Y,,20230520,20230930,126.918834,37.46152,192819.1872,540236.4609
11620085,2023,1162071000,2,신림종합사회복지관,서울특별시 관악구  난곡로  110   (신림동),서울특별시 관악구 신림동 664,400,50,6,6,Y,Y,N,2023.7.31 13:59,2023.7.31 13:59,Y,,20230520,20230930,126.919862,37.464836,192910.4041,540604.4028
1162000286,2023,1162072000,1,구립강남경로당,서울특별시 관악구 조원로4길 24,서울특별시 관악구 신림동 1657-3,192,24,5,3,Y,Y,N,2023.7.31 13:59,2023.7.31 13:59,Y,,20230520,20230930,126.904702,37.482337,191571.2288,542548.0057
1162000288,2023,1162072500,1,조원경로당,서울특별시 관악구 조원로 48,서울특별시 관악구 신림동 560-6,93,12,0,3,Y,Y,N,2023.7.31 13:59,2023.7.31 13:59,Y,,20230520,20230930,126.907749,37.483492,191840.868,542675.9492
1162000289,2023,1162072500,1,신도브레뉴(아)경로당,서울특별시 관악구 조원로16길 12,서울특별시 관악구 신림동 1723,112,14,3,2,Y,Y,N,2023.7.31 13:59,2023.7.31 13:59,Y,,20230520,20230930,126.910657,37.483339,192098.0497,542658.7202
11620175,2023,1162072000,5,조원동주민센터,서울특별시 관악구 조원로12길 25,서울특별시 관악구 신림동 568-27,2669,29,4,4,Y,Y,Y,2023.7.31 13:59,2023.7.31 13:59,Y,,20230520,20230930,126.907808,37.482588,191845.9703,542575.6564
1162000290,2023,1162073000,1,구립대학경로당,서울특별시 관악구 대학12길 16,서울특별시 관악구 신림동 253-13,96,12,4,5,Y,Y,N,2023.7.31 13:59,2023.7.31 13:59,Y,,20230520,20230930,126.936988,37.466638,194425.6399,540803.249
1162000291,2023,1162073500,1,건영3차(아)경로당,서울특별시 관악구 신림로3길 40,서울특별시 관악구 신림동 1703-1,225,28,1,3,Y,Y,N,2023.7.31 13:59,2023.7.31 13:59,Y,,20230520,20230930,126.942728,37.46697,194933.4679,540839.7723
1162000292,2023,1162073500,1,신림금호(아)경로당,서울특별시 관악구 대학18길 6,서울특별시 관악구 신림동 1705-1,79,10,4,1,Y,Y,N,2023.7.31 13:59,2023.7.31 13:59,Y,,20230520,20230930,126.937334,37.465516,194456.1836,540678.7018
1162000293,2023,1162073500,1,신림9현대(아)경로당,서울특별시 관악구 대학20길 27,서울특별시 관악구 신림동 255-189,46,6,3,1,Y,Y,N,2023.7.31 13:59,2023.7.31 13:59,Y,,20230520,20230930,126.937152,37.464009,194439.9711,540511.4561
11620176,2023,1162073000,5,대학동주민센터,서울특별시 관악구 신림로 111,서울특별시 관악구 신림동 1516,1184,35,3,1,Y,Y,Y,2023.7.31 13:59,2023.7.31 13:59,Y,,20230520,20230930,126.936964,37.470602,194423.8289,541243.2008
1162000294,2023,1162074500,1,돌샘경로당,서울특별시 관악구 호암로18나길 5,서울특별시 관악구 신림동 306-12,144,18,0,4,Y,Y,N,2023.7.31 13:59,2023.7.31 13:59,Y,,20230520,20230930,126.932874,37.465291,194061.5981,540653.9685
1162000295,2023,1162074500,1,태흥(아)경로당,서울특별시 관악구 호암로 541,서울특별시 관악구 신림동 1698,49,6,1,1,Y,Y,N,2023.7.31 13:59,2023.7.31 13:59,Y,,20230520,20230930,126.931042,37.465964,193899.5912,540728.8127
1162000296,2023,1162074500,1,주공2단지(아)경로당,서울특별시 관악구 광신길 86,서울특별시 관악구 신림동 1713,142,18,4,2,Y,Y,N,2023.7.31 13:59,2023.7.31 13:59,Y,,20230520,20230930,126.926697,37.463915,193515.0313,540501.6918
1162000297,2023,1162074500,1,원신경로당,서울특별시 관악구 양지10길 15-1 ,서울특별시 관악구 신림동 368-8,214,27,5,2,Y,Y,N,2023.7.31 13:59,2023.7.31 13:59,Y,,20230520,20230930,126.927994,37.47045,193630.3288,541226.8997
1162000299,2023,1162074500,1,주공1단지(아)경로당,서울특별시 관악구 광신길 160,서울특별시 관악구 신림동 1704-1,106,13,6,2,Y,Y,N,2023.7.31 13:59,2023.7.31 13:59,Y,,20230520,20230930,126.927911,37.465935,193622.603,540725.8015
1162000300,2023,1162074500,1,신림동벽산블루밍(아)경로당,서울특별시 관악구 호암로 519,서울특별시 관악구 신림동 1733,68,9,3,2,Y,Y,N,2023.7.31 13:59,2023.7.31 13:59,Y,,20230520,20230930,126.931163,37.463856,193910.1246,540494.8455
1162000301,2023,1162074500,1,삼성산주공(아)경로당,서울특별시 관악구 호암로 399,서울특별시 관악구 신림동 1714,179,23,5,2,Y,Y,N,2023.7.31 13:59,2023.7.31 13:59,Y,,20230520,20230930,126.926131,37.462396,193464.8262,540333.1426
1162000302,2023,1162074500,1,국제산장(아)경로당,서울특별시 관악구 호암로 417,서울특별시 관악구 신림동 1693,109,14,3,1,Y,Y,N,2023.7.31 13:59,2023.7.31 13:59,Y,,20230520,20230930,126.927737,37.460744,193606.768,540149.683
11620173,2023,1162070000,5,삼성동주민센터,서울특별시 관악구 호암로 589,서울특별시 관악구 신림동 1528,210,29,4,1,Y,Y,Y,2023.7.31 13:59,2023.7.31 13:59,Y,,20230520,20230930,126.932972,37.470099,194070.6918,541187.6184
11620110,2023,1162074500,2,성민종합복지관,서울특별시 관악구 호암로 549,서울특별시 관악구 신림동 300-1,156,36,5,2,Y,Y,N,2023.7.31 13:59,2023.7.31 13:59,Y,,20230520,20230930,126.93124,37.466789,193917.2008,540820.3969
1162000303,2023,1162075000,1,미성경로당,서울특별시 관악구  난곡로58길  11   (신림동),서울특별시 관악구 신림동 1566-35,97,12,2,2,Y,Y,N,2023.7.31 13:59,2023.7.31 13:59,Y,,20230520,20230930,126.915744,37.480057,192547.5998,542294.0026
1162000304,2023,1162076500,1,신림푸르지오(아)경로당,서울특별시 관악구 남부순환로 1430,서울특별시 관악구 신림동 1730,28,4,5,3,Y,Y,N,2023.7.31 13:59,2023.7.31 13:59,Y,,20230520,20230930,126.910483,37.479012,192082.2037,542178.4952
1156000228,2023,1156065000,1,우성5차아파트경로당,서울특별시 영등포구 도신로 100,서울특별시 영등포구 신길동 4933,181,35,2,2,Y,Y,N,2023.7.31 13:59,2023.7.31 13:59,Y,,20230520,20230930,126.903886,37.507036,191501.8911,545289.413
1156000227,2023,1156065000,1,신길센트럴아이파크아파트 경로당,서울특별시 영등포구 가마산로 426,서울특별시 영등포구 신길동 347-276,241,50,1,4,Y,Y,Y,2023.7.31 13:59,2023.7.31 13:59,Y,,20230520,20230930,126.903781,37.504107,191492.2572,544964.3299
1156000215,2023,1156065000,99,생각나무 마을도서관,서울특별시 영등포구 신길로41라길 13-8 ,서울특별시 영등포구 신길동 268-27,56,6,0,1,N,N,N,2023.7.31 13:59,2023.7.31 13:59,Y,,20230520,20230930,126.907706,37.507271,191839.6526,545315.1458
1156000147,2023,1156065000,5,신길3동 주민센터,서울특별시 영등포구 신길로41라길 13-8 ,서울특별시 영등포구 신길동 268-4,1046,30,5,15,Y,Y,N,2023.7.31 13:59,2023.7.31 13:59,Y,,20230520,20230930,126.907709,37.507234,191839.9138,545311.0057
1156000148,2023,1156065000,1,구립신길3동경로당,서울특별시 영등포구 도신로 134-1 ,서울특별시 영등포구 신길동 290-8,85,30,2,1,Y,Y,Y,2023.7.31 13:59,2023.7.31 13:59,Y,,20230520,20230930,126.90728,37.511259,191802.3789,545757.7778
1156000149,2023,1156065000,1,구립수정경로당,서울특별시 영등포구 가마산로63길 3,서울특별시 영등포구 신길동 324-22,50,30,2,5,Y,Y,N,2023.7.31 13:59,2023.7.31 13:59,Y,,20230520,20230930,126.904264,37.505337,191535.0766,545100.7118
1156000150,2023,1156065000,1,우성1차아파트 경로당,서울특별시 영등포구 도신로 68,서울특별시 영등포구 신길동 365,174,50,2,3,Y,Y,N,2023.7.31 13:59,2023.7.31 13:59,Y,,20230520,20230930,126.89979,37.505763,191139.6014,545148.4041
1156000151,2023,1156013200,1,래미안프레비뉴경로당,서울특별시 영등포구 가마산로 442,서울특별시 영등포구 신길동 4945,151,46,3,4,Y,Y,Y,2023.7.31 13:59,2023.7.31 13:59,Y,,20230520,20230930,126.905811,37.505122,191671.855,545076.767
1156000152,2023,1156065000,1,건영아파트경로당,서울특별시 영등포구 도림로 313,서울특별시 영등포구 신길동 368,59,25,3,1,Y,Y,Y,2023.7.31 13:59,2023.7.31 13:59,Y,,20230520,20230930,126.901045,37.50431,191250.3796,544987.0445
1156000216,2023,1156066000,99,드나드리 마을도서관,서울특별시 영등포구 신길로42길 1,서울특별시 영등포구 신길동 210-9,127,20,0,1,N,N,N,2023.7.31 13:59,2023.7.31 13:59,Y,,20230520,20230930,126.911443,37.508565,192170.2105,545458.4124
1156000153,2023,1156066000,5,신길4동 주민센터,서울특별시 영등포구 신길로42길 1,서울특별시 영등포구 신길동 209-102,111,20,2,8,Y,Y,N,2023.7.31 13:59,2023.7.31 13:59,Y,,20230520,20230930,126.911266,37.50842,192154.537,545442.334
1156000154,2023,1156066000,1,삼성아파트112동경로당,서울특별시 영등포구 신길로42길 25,서울특별시 영등포구 신길동 4934-2,66,25,4,1,Y,Y,Y,2023.7.31 13:59,2023.7.31 13:59,Y,,20230520,20230930,126.913736,37.50732,192372.8025,545320.0006
1156000155,2023,1156066000,1,삼성래미안아파트경로당,서울특별시 영등포구 도신로56길 62,서울특별시 영등포구 신길동 4934-1,208,50,4,3,Y,Y,Y,2023.7.31 13:59,2023.7.31 13:59,Y,,20230520,20230930,126.914985,37.506564,192483.2036,545236.0049
1156000156,2023,1156066000,1,구립신길4동경로당,서울특별시 영등포구 신길로42길 13-1 ,서울특별시 영등포구 신길동 209-119,198,60,2,2,Y,Y,Y,2023.7.31 13:59,2023.7.31 13:59,Y,,20230520,20230930,126.912352,37.507797,192250.4918,545373.099
1156000239,2023,1156067000,1,신길센트럴자이아파트 경로당,서울특별시 영등포구 신길로29길 17,서울특별시 영등포구 신길동 337-242,376,50,0,7,Y,Y,Y,2023.7.31 13:59,2023.7.31 13:59,Y,,20230520,20230930,126.907719,37.503143,191840.3615,544856.9119
1156000217,2023,1156067000,99,꿈터 마을도서관,서울특별시 영등포구 도림로 264,서울특별시 영등포구 신길동 422,105,6,0,1,N,N,N,2023.7.31 13:59,2023.7.31 13:59,Y,,20230520,20230930,126.905122,37.501646,191610.5716,544691.0813
1156000157,2023,1156067000,5,신길5동 주민센터,서울특별시 영등포구 도림로 264,서울특별시 영등포구 신길동 422,1261,30,3,10,Y,Y,N,2023.7.31 13:59,2023.7.31 13:59,Y,,20230520,20230930,126.905201,37.501607,191617.535,544686.7014
1156000159,2023,1156067000,1,구립신길5동제1경로당,서울특별시 영등포구 신길로13길 24,서울특별시 영등포구 신길동 440-45,122,50,2,2,Y,Y,Y,2023.7.31 13:59,2023.7.31 13:59,Y,,20230520,20230930,126.905654,37.497691,191657.1552,544252.0357
1156000160,2023,1156067000,1,신길뉴타운한화꿈에그린경로당,서울특별시 영등포구 신길로 119,서울특별시 영등포구 신길동 4937,67,25,2,1,Y,Y,Y,2023.7.31 13:59,2023.7.31 13:59,Y,,20230520,20230930,126.90971,37.503511,192016.4042,544897.5955
1156000161,2023,1156067000,1,구립신길5동제2경로당,서울특별시 영등포구 도림로80길 6,서울특별시 영등포구 신길동 341-3,101,30,2,2,Y,Y,N,2023.7.31 13:59,2023.7.31 13:59,Y,,20230520,20230930,126.905426,37.501758,191637.4294,544703.4182
1156000162,2023,1156067000,1,6.25참전자경로당,서울특별시 영등포구 도림로80길 4,서울특별시 영등포구 신길동 341-6,119,40,0,4,Y,Y,N,2023.7.31 13:59,2023.7.31 13:59,Y,,20230520,20230930,126.905281,37.50179,191624.6293,544707.016
1156000240,2023,1156013200,1,신길파크자이아파트 경로당,서울특별시 영등포구 신길로28길 25,서울특별시 영등포구 신길동 4967,198,40,4,1,Y,Y,N,2023.7.31 13:59,2023.7.31 13:59,Y,,20230520,20230930,126.913346,37.503182,192337.906,544860.8118
1156000226,2023,1156068000,1,구립늘푸른경로당,서울특별시 영등포구 신풍로25길 15-22 ,서울특별시 영등포구 신길동 580,177,40,3,5,Y,Y,N,2023.7.31 13:59,2023.7.31 13:59,Y,,20230520,20230930,126.92,37.5014,192926.0959,544662.5118
1156000218,2023,1156068000,99,신길6동 작은도서관,서울특별시 영등포구 대방천로 193,서울특별시 영등포구 신길동 3741-37,96,30,0,1,N,N,N,2023.7.31 13:59,2023.7.31 13:59,Y,,20230520,20230930,126.912393,37.499231,192253.1877,544422.3798
1156000163,2023,1156068000,5,신길6동 주민센터,서울특별시 영등포구 대방천로 258,서울특별시 영등포구 신길동 4217,84,21,0,1,Y,Y,N,2023.7.31 13:59,2023.7.31 13:59,Y,,20230520,20230930,126.919481,37.498374,192879.8813,544326.693
1156000164,2023,1156068000,1,우성3차아파트경로당,서울특별시 영등포구 대방천로14길 32,서울특별시 영등포구 신길동 4656,128,40,0,2,Y,Y,N,2023.7.31 13:59,2023.7.31 13:59,Y,,20230520,20230930,126.908826,37.497044,191937.5976,544179.9951
1156000165,2023,1156068000,1,보라매경남아너스빌경로당,서울특별시 영등포구 여의대방로 25,서울특별시 영등포구 신길동 4780,71,35,2,1,Y,Y,N,2023.7.31 13:59,2023.7.31 13:59,Y,,20230520,20230930,126.910196,37.494877,192058.4981,543939.3254
1156000166,2023,1156068000,1,삼성아파트경로당,서울특별시 영등포구 여의대방로 45,서울특별시 영등포구 신길동 4759,19,35,1,1,Y,Y,N,2023.7.31 13:59,2023.7.31 13:59,Y,,20230520,20230930,126.91108,37.4963,192136.8207,544097.1857
1156000167,2023,1156068000,1,구립신길6동경로당,서울특별시 영등포구 대방천로 193,서울특별시 영등포구 신길동 3741-37,95,30,2,2,Y,Y,N,2023.7.31 13:59,2023.7.31 13:59,Y,,20230520,20230930,126.912418,37.499168,192255.436,544415.3856
1156000168,2023,1156068000,1,신길6동분회경로당,서울특별시 영등포구 신풍로 96,서울특별시 영등포구 신길동 4086-8,99,30,5,1,Y,Y,N,2023.7.31 13:59,2023.7.31 13:59,Y,,20230520,20320930,126.916684,37.499793,192632.7247,544484.41
1156000169,2023,1156068000,1,우성2차아파트경로당,서울특별시 영등포구 대방천로 180,서울특별시 영등포구 신길동 4518,171,40,4,1,Y,Y,N,2023.7.31 13:59,2023.7.31 13:59,Y,,20230520,20230930,126.911717,37.497101,192193.1985,544186
1156000170,2023,1156068000,1,보라매두산위브아파트경로당,서울특별시 영등포구 여의대방로9길 5,서울특별시 영등포구 신길동 4497,49,20,2,2,Y,Y,N,2023.7.31 13:59,2023.7.31 13:59,Y,,20230520,20230930,126.914432,37.497338,192433.3688,544212.1376
1156000171,2023,1156068000,1,남서울아파트경로당,서울특별시 영등포구 신길로 108,서울특별시 영등포구 신길동 3590,53,30,0,1,Y,Y,N,2023.7.31 13:59,2023.7.31 13:59,Y,,20230520,20230930,126.910513,37.501193,192087.2062,544640.2706
1156000219,2023,1156069000,99,마을서랍 마을도서관,서울특별시 영등포구 여의대방로43길 10,서울특별시 영등포구 신길동 897-3,39,18,0,1,N,N,N,2023.7.31 13:59,2023.7.31 13:59,Y,,20230520,20230930,126.921426,37.506445,193052.6204,545222.2802
1156000172,2023,1156069000,5,신길7동 주민센터,서울특별시 영등포구 여의대방로43길 10,서울특별시 영등포구 신길동 897-3,2645,30,6,9,Y,Y,N,2023.7.31 13:59,2023.7.31 13:59,Y,,20230520,20230930,126.921419,37.506324,193052.0257,545208.9068
1156000173,2023,1156069000,1,한성아파트경로당,서울특별시 영등포구 가마산로 575,서울특별시 영등포구 신길동 769-1,113,40,4,2,Y,Y,N,2023.7.31 13:59,2023.7.31 13:59,Y,,20230520,20230930,126.919209,37.508448,192856.7977,545444.798
1156000174,2023,1156069000,1,삼환아파트경로당,서울특별시 영등포구 여의대방로43라길 9,서울특별시 영등포구 신길동 897-1,204,60,3,2,Y,Y,Y,2023.7.31 13:59,2023.7.31 13:59,Y,,20230520,20230930,126.919209,37.508448,192856.7977,545444.798
1156000175,2023,1156069000,1,래미안에스티움경로당,서울특별시 영등포구 신풍로 77,서울특별시 영등포구 신길동 4947,288,87,1,5,Y,Y,N,2023.7.31 13:59,2023.7.31 13:59,Y,,20230520,20230930,126.913102,37.500428,192316.0753,544555.1288
1156000176,2023,1156069000,1,래미안에스티움2경로당,서울특별시 영등포구 신풍로 77,서울특별시 영등포구 신길동 4947,97,29,1,4,Y,Y,N,2023.7.31 13:59,2023.7.31 13:59,Y,,20230520,20230930,126.913797,37.500952,192377.5132,544613.2296
1156000177,2023,1156069000,1,구립신길7동경로당,서울특별시 영등포구 여의대방로43길 10,서울특별시 영등포구 신길동 897-3,314,54,5,4,Y,Y,Y,2023.7.31 13:59,2023.7.31 13:59,Y,,20230520,20230930,126.921408,37.506425,193051.0625,545220.1506
1156000241,2023,1156070000,1,신대림 2차 신동아파밀리에 아파트 경로당,서울특별시 영등포구 디지털로 420,서울특별시 영등포구 대림동 1125,115,40,3,1,Y,Y,N,2023.7.31 13:59,2023.7.31 13:59,Y,,20230520,20230930,126.905273,37.493126,191622.9453,543745.4251
1156000224,2023,1156070000,1,이편한세상아델포레아파트경로당,서울특별시 영등포구 신길로 29,서울특별시 영등포구 대림동 1127,226,64,2,7,Y,Y,N,2023.7.31 13:59,2023.7.31 13:59,Y,,20230520,20230930,126.908285,37.495843,191889.5834,544046.724
1156000178,2023,1156070000,5,대림1동 주민센터,서울특별시 영등포구 디지털로 441,서울특별시 영등포구 대림동 899-2,1854,30,0,1,Y,Y,N,2023.7.31 13:59,2023.7.31 13:59,Y,,20230520,20230930,126.905935,37.495477,191681.7579,544006.2856
1156000180,2023,1156070000,1,구립대림1동경로당,서울특별시 영등포구 디지털로 441,서울특별시 영등포구 대림동 899-2,251,30,3,2,Y,Y,N,2023.7.31 13:59,2023.7.31 13:59,Y,,20230520,20230930,126.905935,37.495477,191681.7579,544006.2856
1156000181,2023,1156070000,1,현대아파트경로당,서울특별시 영등포구 시흥대로187길 12,서울특별시 영등포구 대림동 946-1,56,33,4,1,Y,Y,N,2023.7.31 13:59,2023.7.31 13:59,Y,,20230520,20230930,126.90816,37.492935,191878.2235,543723.9625
1156000183,2023,1156070000,1,구립영인경로당,서울특별시 영등포구 도림로58길 11,서울특별시 영등포구 대림동 759-12,132,65,5,3,Y,Y,N,2023.7.31 13:59,2023.7.31 13:59,Y,,20230520,20230930,126.902725,37.496064,191397.9889,544071.7013
1156000184,2023,1156070000,1,한신2차아파트경로당,서울특별시 영등포구 디지털로69길 13,서울특별시 영등포구 대림동 887-1,25,26,3,1,Y,Y,N,2023.7.31 13:59,2023.7.31 13:59,Y,,20230520,20230930,126.90352,37.49455,191468.0567,543903.5947
1156000221,2023,1156071000,99,대림2동 작은도서관,서울특별시 영등포구 대림로23길 25,서울특별시 영등포구 대림동 705,68,16,0,1,N,N,N,2023.7.31 13:59,2023.7.31 13:59,Y,,20230520,20230930,126.898159,37.492718,190993.8063,543700.7659
1156000220,2023,1156071000,99,대림1동 작은도서관,서울특별시 영등포구 디지털로 441,서울특별시 영등포구 대림동 899-2,130,24,0,1,N,N,N,2023.7.31 13:59,2023.7.31 13:59,Y,,20230520,20230930,126.905908,37.495456,191679.3325,544003.9018
1156000185,2023,1156071000,5,대림2동 주민센터,서울특별시 영등포구 대림로23길 25,서울특별시 영등포구 대림동 705,80,24,3,1,Y,Y,N,2023.7.31 13:59,2023.7.31 13:59,Y,,20230520,20230930,126.898229,37.492712,190999.9783,543700.1155
1156000186,2023,1156071000,1,구립다사랑경로당,서울특별시 영등포구 대림로23가길 5,서울특별시 영등포구 대림동 703-6,192,30,9,3,Y,Y,N,2023.7.31 13:59,2023.7.31 13:59,Y,,20230520,20230930,126.899211,37.492811,191086.8323,543711.0098
1156000187,2023,1156071000,1,구립큰숲경로당,서울특별시 영등포구 대림로7길 11-13 ,서울특별시 영등포구 대림동 990-93,254,80,2,8,Y,Y,Y,2023.7.31 13:59,2023.7.31 13:59,Y,,20230520,20230930,126.90436,37.488696,191541.7148,543253.8236
1156000188,2023,1156071000,1,문영칸타빌레경로당,서울특별시 영등포구 도림천로 391,서울특별시 영등포구 대림동 1061,101,40,1,2,Y,Y,Y,2023.7.31 13:59,2023.7.31 13:59,Y,,20230520,20230930,126.897811,37.492446,190962.9809,543670.6664
1156000189,2023,1156071000,1,구립행복경로당,서울특별시 영등포구 디지털로53길 6-10 ,서울특별시 영등포구 대림동 1033-12,201,61,4,6,Y,Y,Y,2023.7.31 13:59,2023.7.31 13:59,Y,,20230520,20230930,126.898125,37.491344,190990.608,543548.2399
1156000190,2023,1156071000,1,신대림한솔솔파크아파트경로당,서울특별시 영등포구 도림천로 431,서울특별시 영등포구 대림동 1123,36,23,2,1,Y,Y,N,2023.7.31 13:59,2023.7.31 13:59,Y,,20230520,20230930,126.899609,37.48738,191121.3952,543108.2468
1156000191,2023,1156071000,1,구립대동경로당,서울특별시 영등포구 대림로21길 5,서울특별시 영등포구 대림동 832-2,63,36,3,2,Y,Y,Y,2023.7.31 13:59,2023.7.31 13:59,Y,,20230520,20230930,126.900801,37.492719,191227.4582,543700.694
1156000242,2023,1156072000,1,현대1차아파트 경로당,서울특별시 영등포구 도신로4길 10,서울특별시 영등포구 대림동 785-1,56,21,4,1,Y,Y,Y,2023.7.31 13:59,2023.7.31 13:59,Y,,20230520,20230930,126.894904,37.502094,190707.0534,544741.6636
1156000192,2023,1156072000,5,대림3동 주민센터,서울특별시 영등포구 대림로 197,서울특별시 영등포구 대림동 740-4,300,20,7,3,Y,Y,N,2023.7.31 13:59,2023.7.31 13:59,Y,폭염특보 시 휴일 개방: 주말 및 공휴일 09:00~18:00,20230520,20230930,126.89804,37.49828,190983.9337,544318.1092
1156000193,2023,1156072000,1,구립원지경로당,서울특별시 영등포구 도림로47길 28,서울특별시 영등포구 대림동 690,92,50,2,2,Y,Y,Y,2023.7.31 13:59,2023.7.31 13:59,Y,,20230520,20230930,126.90038,37.500367,191191.0904,544549.5288
1156000194,2023,1156072000,1,구립대림3동경로당,서울특별시 영등포구 대림로41길 12,서울특별시 영등포구 대림동 786-28,280,50,5,4,Y,Y,Y,2023.7.31 13:59,2023.7.31 13:59,Y,,20230520,20230930,126.896579,37.503812,190855.3804,544932.1976
1156000195,2023,1156072000,1,구립동심경로당,서울특별시 영등포구 대림로35길 7,서울특별시 영등포구 대림동 742,132,60,4,4,Y,Y,Y,2023.7.31 13:59,2023.7.31 13:59,Y,,20230520,20230930,126.897339,37.498751,190922.0029,544370.396
1156000196,2023,1156072000,1,구립신우경로당,서울특별시 영등포구 가마산로47길 13,서울특별시 영등포구 대림동 657,82,35,3,2,Y,Y,Y,2023.7.31 13:59,2023.7.31 13:59,Y,,20230520,20230930,126.899817,37.506328,191142.0379,545211.1538
1156000197,2023,1156072000,1,현대3차아파트경로당,서울특별시 영등포구 도신로 31,서울특별시 영등포구 대림동 608-1,125,40,7,2,Y,Y,Y,2023.7.31 13:59,2023.7.31 13:59,Y,,20230520,20230930,126.895153,37.506234,190729.6004,545201.2035
1156000198,2023,1156072000,1,대림코오롱아파트경로당,서울특별시 영등포구 도영로 2-5 ,서울특별시 영등포구 대림동 607-1,66,25,5,1,Y,Y,Y,2023.7.31 13:59,2023.7.31 13:59,Y,,20230520,20230930,126.894324,37.507142,190656.3972,545301.9953
1156000199,2023,1156072000,1,신동아(아)경로당,서울특별시 영등포구 가마산로 312,서울특별시 영등포구 대림동 777-1,62,20,2,1,Y,Y,Y,2023.7.31 13:59,2023.7.31 13:59,Y,,20230520,20230930,126.894675,37.497372,190686.2535,544217.6385
1156000200,2023,1156072000,1,우성아파트경로당,서울특별시 영등포구 도림로 187,서울특별시 영등포구 대림동 762-1,60,22,3,1,Y,Y,Y,2023.7.31 13:59,2023.7.31 13:59,Y,,20230520,20230930,126.900952,37.496313,191241.2226,544099.5672
1156000202,2023,1156072000,1,구립두암경로당,서울특별시 영등포구 도림로31길 14-1 ,서울특별시 영등포구 대림동 808-4,114,68,6,2,Y,Y,Y,2023.7.31 13:59,2023.7.31 13:59,Y,,20230520,20230930,126.895541,37.493661,190762.3402,543805.7248
11590002,2023,1159051000,5,노량진1동주민센터,서울특별시 동작구  장승배기로28길  30   (노량진동),서울특별시 동작구 노량진동 84-100,548,100,0,2,Y,Y,Y,2023.7.31 13:59,2023.7.31 13:59,Y,,20230520,20230930,126.942026,37.512299,194874.4994,545870.7446
11590003,2023,1159051000,1,대한경로당,서울특별시 동작구  노량진로14길  44   (노량진동),서울특별시 동작구 노량진동 84-33,68,50,6,6,Y,Y,N,2023.7.31 13:59,2023.7.31 13:59,Y,,20230520,20230930,126.942666,37.511709,194930.9983,545805.2496
11590004,2023,1159051000,1,노량진1동경로당,서울특별시 동작구  만양로  77   (노량진동),서울특별시 동작구 노량진동 224-6,249,80,8,4,Y,Y,N,2023.7.31 13:59,2023.7.31 13:59,Y,,20230520,20230930,126.944615,37.51039,195103.2529,545658.7542
11590005,2023,1159051000,1,우성아파트 경로당,"서울특별시 동작구  만양로8길  50   (노량진동, 우성아파트)",서울특별시 동작구 노량진동 323,165,60,2,1,Y,Y,N,2023.7.31 13:59,2023.7.31 13:59,Y,,20230520,20230930,126.946552,37.510398,195274.501,545659.4987
11590006,2023,1159051000,1,신동아리버파크A.경로당,"서울특별시 동작구  만양로  19   (노량진동, 신동아리버파크임대아파트)",서울특별시 동작구 노량진동 325,277,80,4,2,Y,Y,N,2023.7.31 13:59,2023.7.31 13:59,Y,,20230520,20230930,126.943593,37.507989,195012.7526,545392.2499
11590007,2023,1159051000,1,신동아아파트 우리경로당,서울특별시 동작구 만양로3길 78,서울특별시 동작구 노량진동 327,136,60,5,3,Y,Y,N,2023.7.31 13:59,2023.7.31 13:59,Y,,20230520,20230930,126.941627,37.506017,194838.7467,545173.5003
11590008,2023,1159051000,1,삼익아파트 경로당,"서울특별시 동작구  만양로  84   (노량진동, 삼익주상복합아파트)",서울특별시 동작구 노량진동 330,148,60,2,3,Y,Y,N,2023.7.31 13:59,2023.7.31 13:59,Y,,20230520,20230930,126.944801,37.510969,195119.7532,545722.9951
11590009,2023,1159051000,1,충신경로당,서울특별시 동작구  노량진로28길  31   (본동),서울특별시 동작구 본동 47-25,132,60,2,1,Y,Y,N,2023.7.31 13:59,2023.7.31 13:59,Y,,20230520,20230930,126.955877,37.511756,196098.9981,545809.7475
11590010,2023,1159051000,1,유원강변아파트 경로당,"서울특별시 동작구  노량진로23가길  16 , 상가 (본동, 유원강변아파트)",서울특별시 동작구 본동 482 유원강변아파트 상가,61,40,2,1,Y,Y,N,2023.7.31 13:59,2023.7.31 13:59,Y,,20230520,20230930,126.95115,37.51483,195681.2713,546151.1734
11590011,2023,1159051000,1,극동강변아파트 경로당,"서울특별시 동작구  매봉로  156   (본동, 극동아파트)",서울특별시 동작구 본동 148-2 극동아파트,50,20,2,1,Y,Y,N,2023.7.31 13:59,2023.7.31 13:59,Y,,20230520,20230930,126.952003,37.511641,195756.5028,545797.2515
11590012,2023,1159051000,1,한강형인아파트경로당,서울특별시 동작구 만양로 36,서울특별시 동작구 노량진동 331,24,10,2,2,Y,Y,N,2023.7.31 13:59,2023.7.31 13:59,Y,,20230520,20230930,126.948259,37.50775,195425.2518,545365.498
11590063,2023,1159057000,2,본동종합사회복지관,서울특별시 동작구  노량진로32길  79   (본동),서울특별시 동작구 본동 16-3,53,60,2,2,Y,Y,Y,2023.7.31 13:59,2023.7.31 13:59,Y,,20230520,20230930,126.95691,37.510564,196190.249,545677.4972
11590064,2023,1159057000,1,한마음경로당,서울특별시 동작구  만양로4길  38   (본동),서울특별시 동작구 본동 11-1,116,29,2,3,Y,Y,N,2023.7.31 13:59,2023.7.31 13:59,Y,,20230520,20230930,126.951055,37.507954,195672.5021,545387.996
11590065,2023,1159057000,1,경동A.경로당,"서울특별시 동작구  노량진로32길  156   (본동, 경동윈츠리버아파트)",서울특별시 동작구 본동 484,83,40,2,1,Y,Y,N,2023.7.31 13:59,2023.7.31 13:59,Y,,20230520,20230930,126.95456,37.509985,195982.5005,545613.2445
11590066,2023,1159057000,1,한강쌍용아파트 경로당,"서울특별시 동작구  노량진로24길  2   (본동, 한강쌍용아파트)",서울특별시 동작구 본동 150,84,40,3,1,Y,Y,N,2023.7.31 13:59,2023.7.31 13:59,Y,,20230520,20230930,126.953114,37.512369,195854.7508,545878.0008
11590067,2023,1159057000,1,신동아아파트 경로당,서울특별시 동작구  매봉로  134,서울특별시 동작구 본동 481,66,40,3,2,Y,Y,N,2023.7.31 13:59,2023.7.31 13:59,Y,,20230520,20230930,126.951846,37.509702,195742.5032,545581.9989
11590068,2023,1159057000,1,한신휴플러스아파트 경로당,"서울특별시 동작구  매봉로  99   (본동, 한신휴플러스아파트)",서울특별시 동작구 본동 487,109,60,2,1,Y,Y,N,2023.7.31 13:59,2023.7.31 13:59,Y,,20230520,20230930,126.950156,37.508949,195593.0039,545498.5033
11590069,2023,1159057000,1,본동삼성래미안아파트 경로당,"서울특별시 동작구  매봉로  123   (본동, 삼성래미안아파트)",서울특별시 동작구 본동 492,75,40,3,1,Y,Y,N,2023.7.31 13:59,2023.7.31 13:59,Y,,20230520,20230930,126.950132,37.50985,195590.9968,545598.5039
11590070,2023,1159057000,1,한신휴플러스아파트 101동 경로당,"서울특별시 동작구  매봉로  99   (본동, 한신휴플러스아파트)",서울특별시 동작구 본동 488,33,20,2,1,Y,Y,N,2023.7.31 13:59,2023.7.31 13:59,Y,,20230520,20230930,126.950133,37.508931,195590.9958,545496.4955
11590071,2023,1159057000,1,본동에스에이치빌아파트 경로당,"서울특별시 동작구  노량진로22길  60   (본동, 본동 에스에이치빌)",서울특별시 동작구 본동 490,72,40,1,1,Y,Y,N,2023.7.31 13:59,2023.7.31 13:59,Y,,20230520,20230930,126.949792,37.510776,195560.9997,545701.2497
11590072,2023,1159057000,1,래미안트윈파크아파트 경로당,"서울특별시 동작구  노량진로23가길  23   (본동, 래미안 트윈파크)",서울특별시 동작구 본동 494,190,60,2,2,Y,Y,N,2023.7.31 13:59,2023.7.31 13:59,Y,,20230520,20230930,126.950831,37.514128,195653.002,546073.2528
11590014,2023,1159052000,5,노량진2동주민센터,서울특별시 동작구  장승배기로19길  48   (노량진동),서울특별시 동작구 노량진동 302-97,943,100,2,2,Y,Y,Y,2023.7.31 13:59,2023.7.31 13:59,Y,,20230520,20230930,126.937353,37.508519,194460.9961,545451.4998
11590016,2023,1159052000,1,백송경로당,서울특별시 동작구  노량진로6길  50-14  (노량진동),서울특별시 동작구 노량진동 273-19,164,40,5,1,Y,Y,N,2023.7.31 13:59,2023.7.31 13:59,Y,,20230520,20230930,126.935431,37.510505,194291.2483,545672.002
11590017,2023,1159052000,99,동작구청 민원여권과,서울특별시 동작구 장승배기로 161,서울특별시 동작구 노량진동 47-2,231,50,0,9,Y,Y,N,2023.7.31 13:59,2023.7.31 13:59,Y,,20230520,20230930,126.93947,37.512404,194648.5019,545882.4962
1159000178,2023,1159053000,99,김영삼도서관,서울특별시 동작구 매봉로 1,서울특별시 동작구 상도1동 611,6046,245,1,77,Y,Y,N,2023.7.31 13:59,2023.7.31 13:59,Y,,20230520,20230930,126.95002,37.505555,195580.7794,545121.8525
11590019,2023,1159053000,5,상도1동주민센터,서울특별시 동작구  상도로53길  9   (상도동),서울특별시 동작구 상도동 437,624,80,0,1,Y,Y,Y,2023.7.31 13:59,2023.7.31 13:59,Y,,20230520,20230930,126.953069,37.498122,195850.0014,544296.7467
11590020,2023,1159053000,1,상도1동경로당,서울특별시 동작구 상도로38길 86,서울특별시 동작구 상도동 159-282,155,39,2,3,Y,Y,N,2023.7.31 13:59,2023.7.31 13:59,Y,,20230520,20230930,126.948221,37.500362,195421.4674,544545.5935
11590021,2023,1159053000,1,중앙하이츠아파트경로당,서울특별시 동작구 상도로 320,서울특별시 동작구 상도동 415,72,18,2,1,Y,Y,N,2023.7.31 13:59,2023.7.31 13:59,Y,,20230520,20230930,126.94976,37.500036,195557.4988,544509.2492
11590022,2023,1159053000,1,터널경로당,서울특별시 동작구 매봉로 36,서울특별시 동작구 상도1동 535,39,31,4,2,Y,Y,N,2023.7.31 13:59,2023.7.31 13:59,Y,,20230520,20230930,126.951311,37.506519,195695.0012,545228.751
11590023,2023,1159053000,1,상도에스에이치빌아파트 경로당,서울특별시 동작구 상도로53길 70,서울특별시 동작구 상도동 430,231,58,9,3,Y,Y,N,2023.7.31 13:59,2023.7.31 13:59,Y,,20230520,20230930,126.954468,37.502853,195974.0011,544821.7546
11590024,2023,1159053000,1,청송경로당,서울특별시 동작구  상도로52길  23   (상도동),서울특별시 동작구 상도동 471-7,193,48,6,5,Y,Y,N,2023.7.31 13:59,2023.7.31 13:59,Y,,20230520,20230930,126.951011,37.497211,195668.0001,544195.7524
11590025,2023,1159053000,1,고경경로당,서울특별시 동작구  상도로53가길  16   (상도동),서울특별시 동작구 상도동 438,206,52,6,2,Y,Y,N,2023.7.31 13:59,2023.7.31 13:59,Y,,20230520,20230930,126.953887,37.497436,195922.2537,544220.4962
11590026,2023,1159053000,1,대림아파트경로당,서울특별시 동작구 상도로60길 20,서울특별시 동작구 상도동 411,68,17,2,1,Y,Y,N,2023.7.31 13:59,2023.7.31 13:59,Y,,20230520,20230930,126.954053,37.493268,195936.7513,543757.9952
11590027,2023,1159053000,1,상도현대아파트경로당,서울특별시 동작구 사당로2길 2-32 ,서울특별시 동작구 상도동 412,69,17,2,1,Y,Y,N,2023.7.31 13:59,2023.7.31 13:59,Y,,20230520,20230930,126.959381,37.494045,196407.997,543844.0043
11590028,2023,1159053000,1,래미안상도2차아파트경로당,"서울특별시 동작구  상도로55길  47   (상도동, 래미안상도2차아파트)",서울특별시 동작구 상도동 421,85,21,2,2,Y,Y,N,2023.7.31 13:59,2023.7.31 13:59,Y,,20230520,20230930,126.958721,37.497928,196349.7498,544275.0032
11590029,2023,1159053000,1,삼호아파트경로당,"서울특별시 동작구  상도로  407   (상도동, 상도동 삼호아파트)",서울특별시 동작구 상도동 408,99,25,3,2,Y,Y,N,2023.7.31 13:59,2023.7.31 13:59,Y,,20230520,20230930,126.957282,37.493416,196222.3101,543774.198
11590030,2023,1159053000,1,래미안상도3차아파트경로당,서울특별시 동작구 상도로53길 8,서울특별시 동작구 상도동 431,270,68,2,2,Y,Y,N,2023.7.31 13:59,2023.7.31 13:59,Y,,20230520,20230930,126.954476,37.499188,195974.5029,544414.9977
11590031,2023,1159053000,1,삼환나우빌아파트경로당,"서울특별시 동작구  상도로55길  25   (상도동, 삼환나우빌)",서울특별시 동작구 상도동 520,111,28,1,1,Y,Y,N,2023.7.31 13:59,2023.7.31 13:59,Y,,20230520,20230930,126.956524,37.498306,196155.5019,544316.9994
11590032,2023,1159053000,2,상도종합사회복지관,"서울특별시 동작구  상도로39가길  7 , 상도종합사회복지관 (상도1동)",서울특별시 동작구 상도1동 456 상도종합사회복지관,406,30,4,5,Y,Y,Y,2023.7.31 13:59,2023.7.31 13:59,Y,,20230520,20230930,126.949693,37.502493,195551.7466,544782.0031
11590033,2023,1159053000,1,상도엠코타운애스톤파크아파트 경로당,"서울특별시 동작구  상도로  346-2  (상도동, 상도 엠코타운 애스톤파크)",서울특별시 동작구 상도동 533 상도 엠코타운 애스톤파크,141,35,3,4,Y,Y,N,2023.7.31 13:59,2023.7.31 13:59,Y,,20230520,20230930,126.94949,37.497276,195533.5038,544203.0044
11590034,2023,1159053000,1,상도패리스 경로당,"서울특별시 동작구  상도로47바길  40   (상도동, 상도패리스)",서울특별시 동작구 상도동 460 상도패리스,48,12,2,1,Y,Y,N,2023.7.31 13:59,2023.7.31 13:59,Y,,20230520,20230930,126.954307,37.503479,195959.7459,544891.2505
11590035,2023,1159053000,1,힐스테이트 상도 센트럴파크아파트 경로당,서울특별시 동작구 상도로 346-1 ,서울특별시 동작구 상도동 531,208,52,5,5,Y,Y,N,2023.7.31 13:59,2023.7.31 13:59,Y,,20230520,20230930,126.950863,37.495747,195654.7482,544033.2522
1159000184,2023,1159054000,1,파크엘A 경로당,서울특별시 동작구 양녕로 220,서울특별시 동작구 상도동 904,295,45,0,2,Y,Y,N,2023.7.31 13:59,2023.7.31 13:59,Y,,20230520,20230930,126.9466,37.501,195278.1441,544616.4501
11590036,2023,1159054000,5,상도2동주민센터,서울특별시 동작구  상도로  211   (상도동),서울특별시 동작구 상도동 25-48,636,80,6,3,Y,Y,Y,2023.7.31 13:59,2023.7.31 13:59,Y,,20230520,20230930,126.942331,37.505495,194901.0019,545115.5044
11590037,2023,1159054000,1,상도2동경로당,서울특별시 동작구  양녕로36길  13   (상도동),서울특별시 동작구 상도동 159-330,346,80,3,2,Y,Y,N,2023.7.31 13:59,2023.7.31 13:59,Y,,20230520,20230930,126.946193,37.502219,195242.2504,544751.7527
11590038,2023,1159054000,1,낙원경로당,서울특별시 동작구  상도로30길  73   (상도동),서울특별시 동작구 상도동 28-24,178,60,2,2,Y,Y,N,2023.7.31 13:59,2023.7.31 13:59,Y,,20230520,20230930,126.944846,37.503957,195123.2491,544944.7506
11590039,2023,1159054000,1,장수경로당,서울특별시 동작구 상도로15길 76,서울특별시 동작구 상도동 358-15,236,80,4,2,Y,Y,N,2023.7.31 13:59,2023.7.31 13:59,Y,,20230520,20230930,126.935392,37.503709,194287.2823,544917.7133
11590040,2023,1159054000,1,건영아파트경로당,"서울특별시 동작구  만양로  26   (상도동, 건영아파트)",서울특별시 동작구 상도동 414,195,50,1,1,Y,Y,N,2023.7.31 13:59,2023.7.31 13:59,Y,,20230520,20230930,126.948783,37.507173,195471.5029,545301.4996
11590041,2023,1159054000,1,래미안1차108동아파트경로당,"서울특별시 동작구  등용로  37   (상도동, 상도동래미안1차아파트)",서울특별시 동작구 상도동 447,113,60,2,3,Y,Y,N,2023.7.31 13:59,2023.7.31 13:59,Y,,20230520,20230930,126.933046,37.505262,194079.9956,545090.2546
11590042,2023,1159054000,1,아이파크아파트경로당,"서울특별시 동작구  장승배기로  26   (상도동, 아이파크상도동)",서울특별시 동작구 상도동 416,138,60,2,2,Y,Y,N,2023.7.31 13:59,2023.7.31 13:59,Y,,20230520,20230930,126.941908,37.500868,194863.2483,544602.0011
11590043,2023,1159054000,1,삼성래미안1차아파트경로당,"서울특별시 동작구  등용로  37   (상도동, 상도동래미안1차아파트)",서울특별시 동작구 상도동 450,152,60,2,1,Y,Y,N,2023.7.31 13:59,2023.7.31 13:59,Y,,20230520,20230930,126.933796,37.504465,194146.2478,545001.7509
11590044,2023,1159054000,1,상도더샵아파트경로당,서울특별시 동작구 장승배기로10길 130,서울특별시 동작구 상도동 521,159,60,2,3,Y,Y,N,2023.7.31 13:59,2023.7.31 13:59,Y,,20230520,20230930,126.944656,37.502033,195106.2705,544731.2435
11590045,2023,1159054000,1,브라운스톤상도아파트경로당,"서울특별시 동작구  상도로31길  19   (상도동, 브라운스톤 상도)",서울특별시 동작구 상도동 527,159,60,2,1,Y,Y,N,2023.7.31 13:59,2023.7.31 13:59,Y,,20230520,20230930,126.944008,37.506018,195049.2532,545173.5055
11590046,2023,1159054000,1,동원베네스트아파트경로당,"서울특별시 동작구  상도로34길  42   (상도동, 상도동 동원베네스트)",서울특별시 동작구 상도동 528,44,20,1,2,Y,Y,N,2023.7.31 13:59,2023.7.31 13:59,Y,,20230520,20230930,126.944655,37.503052,195106.2486,544844.2506
11590047,2023,1159054000,1,이편한세상 상도노빌리티아파트 경로당,서울특별시 동작구 만양로 6,서울특별시 동작구 상도동 903,239,70,1,5,Y,Y,N,2023.7.31 13:59,2023.7.31 13:59,Y,,20230520,20230930,126.948297,37.505362,195428.5014,545100.5031
1159000185,2023,1159055000,1,갑을명가2차아파트경로당,서울특별시 동작구 국사봉길 175,서울특별시 동작구 상도동 459,67,33,2,1,Y,Y,N,2023.7.31 13:59,2023.7.31 13:59,N,,20220520,20230717,126.935245,37.493586,194273.5026,543794.2449
11590048,2023,1159055000,5,상도3동주민센터,서울특별시 동작구  성대로2길  11   (상도동),서울특별시 동작구 상도동 315-37,409,100,2,13,Y,Y,Y,2023.7.31 13:59,2023.7.31 13:59,Y,,20230520,20230930,126.931341,37.499206,193928.7505,544418.2475
11590049,2023,1159055000,1,상도3동경로당,서울특별시 동작구 국사봉1길 221-7 ,서울특별시 동작구 상도동 283-226,124,41,2,2,Y,Y,N,2023.7.31 13:59,2023.7.31 13:59,Y,,20230520,20230930,126.936331,37.493452,194369.5043,543779.2516
11590050,2023,1159055000,1,쌍용스윗닷홈아파트경로당,"서울특별시 동작구  상도로  107   (상도동, 쌍용스윗닷홈)",서울특별시 동작구 상도동 418,112,65,2,1,Y,Y,N,2023.7.31 13:59,2023.7.31 13:59,Y,,20230520,20230930,126.931693,37.501383,193959.9988,544659.7549
11590051,2023,1159055000,1,성대경로당,서울특별시 동작구  상도로13길  16   (상도동),서울특별시 동작구 상도동 336-5,180,59,5,4,Y,Y,N,2023.7.31 13:59,2023.7.31 13:59,Y,,20230520,20230930,126.930276,37.501274,193834.7463,544647.7492
11590052,2023,1159055000,1,갑을명가1차아파트경로당,"서울특별시 동작구  국사봉길  178   (상도동, 상도1차 갑을명가아파트)",서울특별시 동작구 상도동 458,36,39,2,2,Y,Y,N,2023.7.31 13:59,2023.7.31 13:59,Y,,20230520,20230930,126.934188,37.49359,194180.0027,543794.7537
1159000177,2023,1159056000,99,약수도서관,서울특별시 동작구 양녕로22바길 64,서울특별시 동작구 상도동 211-77,599,47,1,3,Y,Y,N,2023.7.31 13:59,2023.7.31 13:59,Y,,20230520,20230930,126.947385,37.497911,195347.4009,544273.5942
11590054,2023,1159056000,5,상도4동주민센터,서울특별시 동작구 양녕로27길 44,서울특별시 동작구 상도동 202-59,575,20,2,4,Y,Y,Y,2023.7.31 13:59,2023.7.31 13:59,Y,,20230520,20230930,126.941487,37.499368,194825.8739,544435.6102
11590055,2023,1159056000,1,약수경로당,서울특별시 동작구 양녕로 210-10 ,서울특별시 동작구 상도동 211-438,124,20,2,2,Y,Y,N,2023.7.31 13:59,2023.7.31 13:59,Y,,20230520,20230930,126.944852,37.499563,195123.4938,544456.9953
11590056,2023,1159056000,1,성대골경로당,서울특별시 동작구  성대로10나길  1-4  (상도동),서울특별시 동작구 상도동 261-16,180,30,4,2,Y,Y,N,2023.7.31 13:59,2023.7.31 13:59,Y,,20230520,20230930,126.934976,37.497312,194249.9998,544207.7543
11590057,2023,1159056000,1,경향렉스빌아파트경로당,"서울특별시 동작구  양녕로23길  9   (상도동, 경향렉스빌)",서울특별시 동작구 상도동 445,112,20,1,1,Y,Y,N,2023.7.31 13:59,2023.7.31 13:59,Y,,20230520,20230930,126.94196,37.495324,194867.5024,543986.7528
11590058,2023,1159056000,1,동아아파트 경로당,"서울특별시 동작구  양녕로23길  43   (상도동, 동아아파트)",서울특별시 동작구 상도동 409,29,8,1,1,Y,Y,N,2023.7.31 13:59,2023.7.31 13:59,Y,,20230520,20230930,126.939978,37.496231,194692.2521,544087.4947
11590059,2023,1159056000,1,송학경로당(상도동),서울특별시 동작구 성대로29길 53,서울특별시 동작구 상도동 188-81,104,30,3,2,Y,Y,N,2023.7.31 13:59,2023.7.31 13:59,Y,,20230520,20230930,126.937733,37.500633,194494.0502,544576.1663
11590060,2023,1159056000,1,상도4동 경로당,서울특별시 동작구 양녕로22바길 95,서울특별시 동작구 상도동 211-94,89,20,2,2,Y,Y,N,2023.7.31 13:59,2023.7.31 13:59,Y,,20230520,20230930,126.947006,37.499169,195313.9476,544413.2569
1159000179,2023,1159010500,99,까망돌도서관,서울특별시 동작구 서달로 129,서울특별시 동작구 흑석동 340-1,3317,161,1,54,Y,Y,N,2023.7.31 13:59,2023.7.31 13:59,Y,,20230520,20230930,126.960547,37.505092,196511.579,545070.0231
1159000173,2023,1159060500,1,롯데캐슬에듀포레아파트 경로당,서울특별시 동작구 서달로 123,서울특별시 동작구 흑석동 340,232,80,2,1,Y,Y,N,2023.7.31 13:59,2023.7.31 13:59,Y,,20230520,20230930,126.960659,37.50485,196521.5149,545043.1157
11590073,2023,1159058000,5,흑석동주민센터,서울특별시 동작구  흑석한강로  11   (흑석동),서울특별시 동작구 흑석동 335-2,737,80,4,6,Y,Y,Y,2023.7.31 13:59,2023.7.31 13:59,Y,,20230520,20230930,126.966591,37.505783,197045.9956,545146.4973
11590074,2023,1159058000,1,흑석경로당,서울특별시 동작구  서달로13길  17   (흑석동),서울특별시 동작구 흑석동 181-23,389,80,4,2,Y,Y,N,2023.7.31 13:59,2023.7.31 13:59,Y,,20230520,20230930,126.961876,37.508451,196629.2483,545442.7473
11590075,2023,1159058000,1,우리유앤미아파트경로당,"서울특별시 동작구  서달로  83   (흑석동, 우리유앤미아파트)",서울특별시 동작구 흑석동 329,50,20,0,2,Y,Y,N,2023.7.31 13:59,2023.7.31 13:59,Y,,20230520,20230930,126.959649,37.500659,196432.0027,544577.9955
11590076,2023,1159058000,1,동양아파트경로당,"서울특별시 동작구  서달로1길  17   (흑석동, 흑석동양아파트)",서울특별시 동작구 흑석동 328,109,60,1,2,Y,Y,N,2023.7.31 13:59,2023.7.31 13:59,Y,,20230520,20230930,126.958719,37.500413,196349.7469,544550.7505
11590077,2023,1159058000,1,달마경로당,서울특별시 동작구  서달로  54-15  (흑석동),서울특별시 동작구 흑석동 256-1,99,40,2,3,Y,Y,N,2023.7.31 13:59,2023.7.31 13:59,Y,,20230520,20230930,126.961663,37.499085,196610.0012,544403.2497
11590078,2023,1159058000,1,한강현대아파트경로당,"서울특별시 동작구  현충로  151   (흑석동, 한강현대아파트)",서울특별시 동작구 흑석동 28 한강현대아파트,132,40,0,2,Y,Y,N,2023.7.31 13:59,2023.7.31 13:59,Y,,20230520,20230930,126.970408,37.506586,197383.4999,545235.4959
11590079,2023,1159058000,1,흑석센트레빌2차아파트경로당,서울특별시 동작구  서달로  91   (흑석동),서울특별시 동작구 흑석동 339,224,80,3,4,Y,Y,N,2023.7.31 13:59,2023.7.31 13:59,Y,,20230520,20230930,126.958566,37.502233,196336.2538,544752.753
11590080,2023,1159058000,1,흑석푸르지오아파트경로당,"서울특별시 동작구  흑석한강로  27   (흑석동, 흑석한강푸르지오)",서울특별시 동작구 흑석동 336 흑석한강푸르지오,176,60,5,4,Y,Y,N,2023.7.31 13:59,2023.7.31 13:59,Y,,20230520,20230930,126.965402,37.503154,196940.7498,544854.7501
11590081,2023,1159058000,1,흑석한강센트레빌1차아파트경로,"서울특별시 동작구  흑석한강로  12   (흑석동, 흑석한강센트레빌)",서울특별시 동작구 흑석동 335 흑석한강센트레빌,148,60,2,1,Y,Y,N,2023.7.31 13:59,2023.7.31 13:59,Y,,20230520,20230930,126.964855,37.506181,196892.4997,545190.7483
11590082,2023,1159059000,1,비개경로당,서울특별시 동작구  현충로12길  106-8  (흑석동),서울특별시 동작구 흑석동 295-2,285,80,2,2,Y,Y,N,2023.7.31 13:59,2023.7.31 13:59,Y,,20230520,20230930,126.968684,37.503998,197230.9987,544948.255
11590084,2023,1159060000,1,송림경로당,"서울특별시 동작구  서달로2길  29   (흑석동, 청호아파트)",서울특별시 동작구 흑석동 327청호,83,40,3,2,Y,Y,N,2023.7.31 13:59,2023.7.31 13:59,Y,,20230520,20230930,126.963214,37.501185,196747.2506,544636.2455
11590085,2023,1159060500,1,명수대현대아파트경로당,서울특별시 동작구 현충로 119,서울특별시 동작구 흑석동 10,135,60,1,2,Y,Y,N,2023.7.31 13:59,2023.7.31 13:59,Y,,20230520,20230930,126.966717,37.507916,197057.2466,545383.1957
11590086,2023,1159060500,1,해피경로당,서울특별시 동작구 흑석로13마길 61,서울특별시 동작구 흑석동 194-13,92,40,2,3,Y,Y,N,2023.7.31 13:59,2023.7.31 13:59,Y,,20230520,20230930,126.95888,37.507416,196364.3053,545327.9982
11590087,2023,1159060500,1,아크로리버하임아파트 타워동 경로당,서울특별시 동작구 현충로 52,서울특별시 동작구 흑석동 158-1,100,50,0,2,Y,Y,N,2023.7.31 13:59,2023.7.31 13:59,Y,,20230520,20230930,126.96113,37.509408,196563.3254,545549.0335
11590091,2023,1159062000,5,사당1동주민센터,"서울특별시 동작구  동작대로17길  28 , 사당1동 주민센터 (사당동)",서울특별시 동작구 사당동 1004-52 사당1동 주민센터,472,118,1,1,Y,Y,Y,2023.7.31 13:59,2023.7.31 13:59,Y,,20230520,20230930,126.978693,37.483153,198115.4958,542634.4964
11590092,2023,1159062000,1,송학경로당(사당동),서울특별시 동작구 동작대로9가길 24-4 ,서울특별시 동작구 사당동 1027-23,224,56,6,2,Y,Y,N,2023.7.31 13:59,2023.7.31 13:59,Y,,20230520,20230930,126.978917,37.479785,198135.2504,542260.7553
11590093,2023,1159062000,1,르메이에르아파트경로당,"서울특별시 동작구  사당로20길  119   (사당동, 르메이에르)",서울특별시 동작구 사당동 1141,23,5,2,1,Y,Y,N,2023.7.31 13:59,2023.7.31 13:59,Y,,20230520,20230930,126.973703,37.478421,197673.9982,542109.4967
11590094,2023,1159062000,2,사당어르신종합복지관,서울특별시 동작구  남부순환로  2081   (사당동),서울특별시 동작구 사당동 1044-42,256,50,0,6,Y,Y,Y,2023.7.31 13:59,2023.7.31 13:59,Y,,20230520,20230930,126.979859,37.477053,198218.4959,541957.4994
11590095,2023,1159062000,1,사당1동경로당,서울특별시 동작구 사당로20길 132,서울특별시 동작구 사당동 316-40,137,30,2,1,Y,Y,N,2023.7.31 13:59,2023.7.31 13:59,Y,,20230520,20230930,126.973231,37.478887,197632.273,542161.2282
1159000183,2023,1159063000,1,이수스위첸포레힐즈 실버클럽 경로당,서울특별시 동작구 동작대로45길 10,서울특별시 동작구 동작동 93-6,173,40,1,1,Y,Y,N,2023.7.31 13:59,2023.7.31 13:59,Y,,20230520,20230930,126.9,37.5,191157.4544,544508.821
1159000176,2023,1159063000,1,이수푸르지오 더 프레티움 A,서울특별시 동작구 동작대로39길 39,서울특별시 동작구 사당동 42-24,299,41,1,3,Y,Y,N,2023.7.31 13:59,2023.7.31 13:59,Y,,20230520,20230930,126.980408,37.492897,198267.4046,543715.9633
1159000175,2023,1159063000,1,삼성아파트경로당,서울특별시 동작구 동작대로35아길 14,서울특별시 동작구 동작동 328-6,48,25,1,1,Y,Y,N,2023.7.31 13:59,2023.7.31 13:59,Y,,20230520,20230930,126.979273,37.493236,198167.0405,543753.5872
1159000174,2023,1159063000,1,사당신동아아파트504동경로당,서울특별시 동작구 동작대로29길 118,서울특별시 동작구 사당동 1137-1,41,20,1,1,Y,Y,N,2023.7.31 13:59,2023.7.31 13:59,Y,,20230520,20230930,126.976844,37.490495,197952.1344,543449.4666
11590089,2023,1159061000,1,이수교KCC아파트경로당,"서울특별시 동작구  동작대로45길  22   (동작동, 이수교KCC스위첸)",서울특별시 동작구 동작동 332,95,80,1,1,Y,Y,N,2023.7.31 13:59,2023.7.31 13:59,Y,,20230520,20230930,126.981078,37.497664,198326.7528,544245.0038
11590090,2023,1159061000,1,금강KCC아파트경로당,"서울특별시 동작구  동작대로39가길  55   (동작동, 동작동금강KCC아파트)",서울특별시 동작구 동작동 331,39,30,1,1,Y,Y,N,2023.7.31 13:59,2023.7.31 13:59,Y,,20230520,20230930,126.978438,37.493999,198093.2533,543838.2535
11590096,2023,1159063000,5,사당2동주민센터,"서울특별시 동작구  동작대로29길  52 , 사당2동 주민센터 (사당동)",서울특별시 동작구 사당동 105-12 사당2동 주민센터,867,80,6,5,Y,Y,Y,2023.7.31 13:59,2023.7.31 13:59,Y,,20230520,20230930,126.979246,37.488753,198164.4989,543256.0003
11590097,2023,1159063000,2,동작이수사회복지관,"서울특별시 동작구  동작대로35차길  7 , 동작이수사회복지관 (사당동)",서울특별시 동작구 사당동 52-3 동작이수사회복지관,170,60,6,5,Y,Y,Y,2023.7.31 13:59,2023.7.31 13:59,Y,,20230520,20230930,126.976864,37.493142,197954.0018,543743.2485
11590098,2023,1159063000,1,배나무골경로당,"서울특별시 동작구  동작대로29바길  3 , 동작동노인정(배나무골경로당) (사당동)",서울특별시 동작구 사당동 77-24 동작동노인정(배나무골경로당),248,80,12,4,Y,Y,N,2023.7.31 13:59,2023.7.31 13:59,Y,,20230520,20230930,126.980467,37.48967,198272.5036,543357.7521
11590099,2023,1159063000,1,신동아4단지아파트경로당,"서울특별시 동작구  동작대로29길  110   (사당동, 신동아아파트)",서울특별시 동작구 사당동 105 신동아아파트,135,80,2,1,Y,Y,N,2023.7.31 13:59,2023.7.31 13:59,Y,,20230520,20230930,126.977976,37.49,198052.2495,543394.5041
11590100,2023,1159063000,1,신동아5단지아파트경로당,"서울특별시 동작구  동작대로29길  118   (사당동, 신동아아파트)",서울특별시 동작구 사당동 1137 신동아아파트,83,80,2,1,Y,Y,N,2023.7.31 13:59,2023.7.31 13:59,Y,,20230520,20230930,126.976876,37.491023,197954.9964,543508.0004
11590101,2023,1159063000,1,남성경로당,"서울특별시 동작구  동작대로25길  48 , 남성경로당 (사당동)",서울특별시 동작구 사당동 708-490 남성경로당,122,80,7,2,Y,Y,N,2023.7.31 13:59,2023.7.31 13:59,Y,,20230520,20230930,126.979899,37.485306,198222.2473,542873.5051
11590102,2023,1159063000,1,우성2단지아파트경로당,서울특별시 동작구 동작대로29길 91,서울특별시 동작구 사당동 105,140,80,3,1,Y,Y,N,2023.7.31 13:59,2023.7.31 13:59,Y,,20230520,20230930,126.977643,37.487439,198022.7501,543110.2516
11590103,2023,1159063000,1,우성3단지아파트경로당,서울특별시 동작구 동작대로29길 115,서울특별시 동작구 사당동 105,100,80,2,1,Y,Y,N,2023.7.31 13:59,2023.7.31 13:59,Y,,20230520,20230930,126.975926,37.490054,197870.9989,543400.4974
11590104,2023,1159063000,1,극동아파트경로당,서울특별시 동작구 동작대로29길 119,서울특별시 동작구 사당동 105,100,80,5,2,Y,Y,N,2023.7.31 13:59,2023.7.31 13:59,Y,,20230520,20230930,126.975462,37.491558,197829.9987,543567.4988
11590105,2023,1159063000,1,이수힐스테이트아파트 경로당,서울특별시 동작구 동작대로39길 22,서울특별시 동작구 동작동 333,179,30,2,4,Y,Y,N,2023.7.31 13:59,2023.7.31 13:59,Y,,20230520,20230930,126.980092,37.494416,198239.504,543884.5028
11590106,2023,1159064000,1,사당두산위브트레지움아파트경로,서울특별시 동작구 사당로13길 31,서울특별시 동작구 사당동 1131,107,60,3,3,Y,Y,N,2023.7.31 13:59,2023.7.31 13:59,Y,,20230520,20230930,126.971391,37.48555,197469.749,542900.7472
11590107,2023,1159064000,5,사당3동주민센터,서울특별시 동작구 사당로17길 31,서울특별시 동작구 사당동 256-1,859,80,5,2,Y,Y,Y,2023.7.31 13:59,2023.7.31 13:59,Y,,20230520,20230930,126.973475,37.484512,197654.0484,542785.4446
11590108,2023,1159064000,1,삼화경로당,서울특별시 동작구  사당로13길  42   (사당동),서울특별시 동작구 사당동 1131-13,100,60,3,2,Y,Y,N,2023.7.31 13:59,2023.7.31 13:59,Y,,20230520,20230930,126.971903,37.485938,197515.0002,542943.752
11590109,2023,1159064000,1,삼익경로당,"서울특별시 동작구  사당로27길  190   (사당동, 롯데캐슬)",서울특별시 동작구 사당동 1132,102,60,4,1,Y,Y,N,2023.7.31 13:59,2023.7.31 13:59,Y,,20230520,20230930,126.972317,37.490181,197551.7537,543414.747
11590110,2023,1159064000,1,삼일공원경로당,서울특별시 동작구 사당로23길 93,서울특별시 동작구 사당동 산 24-17,126,60,2,2,Y,Y,N,2023.7.31 13:59,2023.7.31 13:59,Y,,20230520,20230930,126.97355,37.486614,197660.7472,543018.748
11590111,2023,1159064000,1,대림아파트경로당,서울특별시 동작구 사당로23길 137,서울특별시 동작구 사당동 169-8,87,40,3,2,Y,Y,N,2023.7.31 13:59,2023.7.31 13:59,Y,,20230520,20230930,126.973152,37.486106,197625.5138,542962.41
11590112,2023,1159064000,1,현대아파트경로당,"서울특별시 동작구  사당로17길  111   (사당동, 현대아파트)",서울특별시 동작구 사당동 169-32 현대아파트,50,20,2,1,Y,Y,N,2023.7.31 13:59,2023.7.31 13:59,Y,,20230520,20230930,126.970488,37.487947,197390.0042,543166.7517
11590113,2023,1159064000,1,경남아너스빌아파트(대아)경로,"서울특별시 동작구  사당로9가길  82   (사당동, 대아아파트)",서울특별시 동작구 사당동 1134,155,60,3,1,Y,Y,N,2023.7.31 13:59,2023.7.31 13:59,Y,,20230520,20230930,126.967308,37.488423,197108.7491,543219.752
11590114,2023,1159064000,1,동작삼성래미안아파트경로당,"서울특별시 동작구  사당로23바길  9   (사당동, 동작삼성래미안아파트)",서울특별시 동작구 사당동 1133,133,60,5,2,Y,Y,N,2023.7.31 13:59,2023.7.31 13:59,Y,,20230520,20230930,126.970782,37.489726,197415.996,543364.2447
11590115,2023,1159064000,1,사당롯데캐슬2차아파트 경로당,"서울특별시 동작구  사당로27길  181   (사당동, 사당 롯데캐슬)",서울특별시 동작구 사당동 1149,50,20,1,2,Y,Y,N,2023.7.31 13:59,2023.7.31 13:59,Y,,20230520,20230930,126.971143,37.490253,197448.0018,543422.7471
11590116,2023,1159064000,1,학수경로당,서울특별시 동작구 사당로27길 215,서울특별시 동작구 사당동 177-1,62,40,4,1,Y,Y,N,2023.7.31 13:59,2023.7.31 13:59,Y,,20230520,20230930,126.970694,37.491447,197408.3083,543555.2111
11590117,2023,1159064000,1,이수역리가아파트 경로당,서울특별시 동작구 사당로27길 130,서울특별시 동작구 사당동 171,107,50,2,1,Y,Y,N,2023.7.31 13:59,2023.7.31 13:59,Y,,20230520,20230930,126.974559,37.488799,197749.9969,543261.2518
11590118,2023,1159064000,1,래미안로이파크아파트 경로당,서울특별시 동작구 사당로23길 112,서울특별시 동작구 사당동 168-12,183,80,0,4,Y,Y,N,2023.7.31 13:59,2023.7.31 13:59,Y,,20230520,20230930,126.974327,37.487598,197729.4958,543127.9955
11590121,2023,1159065000,5,사당4동주민센터,"서울특별시 동작구  사당로16아길  6 , 사당4동 주민센터 (사당동)",서울특별시 동작구 사당동 300-8 사당4동 주민센터,271,80,3,3,Y,Y,Y,2023.7.31 13:59,2023.7.31 13:59,Y,,20230520,20230930,126.971627,37.480966,197490.5035,542391.9999
11590122,2023,1159065000,2,사당종합사회복지관,서울특별시 동작구  사당로14길  20   (사당동),서울특별시 동작구 사당동 268-6,42,20,1,1,Y,Y,Y,2023.7.31 13:59,2023.7.31 13:59,Y,,20230520,20230930,126.971502,37.483275,197479.4986,542648.2494
11590123,2023,1159065000,1,삼익그린뷰아파트경로당,"서울특별시 동작구  남부순환로255길  21   (사당동, 사당삼익그린뷰아파트)",서울특별시 동작구 사당동 1150,75,40,4,2,Y,Y,N,2023.7.31 13:59,2023.7.31 13:59,Y,,20230520,20230930,126.969272,37.477301,197281.9964,541985.2549
11590124,2023,1159065000,1,신남성경로당,서울특별시 동작구  사당로16길  56   (사당동),서울특별시 동작구 사당동 297-17,259,70,5,4,Y,Y,N,2023.7.31 13:59,2023.7.31 13:59,Y,,20230520,20230930,126.972023,37.481354,197525.4974,542434.9968
11590125,2023,1159065000,1,사당KCC아파트경로당,"서울특별시 동작구  사당로20나길  57   (사당동, 케이씨씨아파트)",서울특별시 동작구 사당동 1153,30,20,1,1,Y,Y,N,2023.7.31 13:59,2023.7.31 13:59,Y,,20230520,20230930,126.973708,37.481514,197674.501,542452.745
11590126,2023,1159065000,1,진흥아파트경로당,"서울특별시 동작구  사당로16아길  43   (사당동, 진흥아파트)",서울특별시 동작구 사당동 1142,20,20,4,1,Y,Y,N,2023.7.31 13:59,2023.7.31 13:59,Y,,20230520,20230930,126.969123,37.480256,197269.0042,542313.2469
11590127,2023,1159065000,1,휴먼시아아파트경로당,"서울특별시 동작구  사당로16길  96   (사당동, 사당휴먼시아)",서울특별시 동작구 사당동 1154,128,20,3,1,Y,Y,N,2023.7.31 13:59,2023.7.31 13:59,Y,,20230520,20230930,126.96998,37.47863,197344.7472,542132.747
11590128,2023,1159065000,1,사당4동 경로당,서울특별시 동작구  사당로16라길  9   (사당동),서울특별시 동작구 사당동 278-34,145,60,2,1,Y,Y,N,2023.7.31 13:59,2023.7.31 13:59,Y,,20230520,20230930,126.970324,37.482651,197375.2529,542579.0037
1159000182,2023,1159065100,1,남해오네뜨아파트경로당,서울특별시 동작구 사당로2가길 173,서울특별시 동작구 사당동 1143,58,14,2,1,Y,Y,N,2023.7.31 13:59,2023.7.31 13:59,Y,,20230520,20230930,126.965617,37.487173,196959.1567,543081.0163
1159000180,2023,1159065100,99,사당솔밭도서관,서울특별시 동작구 솔밭로 86,서울특별시 동작구 사당동 708-1188,1725,280,1,23,Y,Y,N,2023.7.31 13:59,2023.7.31 13:59,Y,,20230520,20230930,126.967331,37.484043,197110.5791,542733.5626
11590129,2023,1159065100,5,사당5동주민센터,서울특별시 동작구  사당로2가길  219   (사당동),서울특별시 동작구 사당동 228-11,1270,317,10,2,Y,Y,Y,2023.7.31 13:59,2023.7.31 13:59,Y,,20230520,20230930,126.967007,37.485632,197082.0027,542909.9972
11590130,2023,1159065100,1,사당5동구립경로당,서울특별시 동작구  사당로6길  3-8  (사당동),서울특별시 동작구 사당동 214-5,299,80,4,2,Y,Y,N,2023.7.31 13:59,2023.7.31 13:59,Y,,20230520,20230930,126.967583,37.486376,197133.0004,542992.4981
11590131,2023,1159065100,1,제일아파트경로당,"서울특별시 동작구  사당로16다길  57   (사당동, 제일아파트)",서울특별시 동작구 사당동 240-15,30,7,1,1,Y,Y,N,2023.7.31 13:59,2023.7.31 13:59,Y,,20230520,20230930,126.96951,37.48293,197303.2503,542610.0031
11590132,2023,1159065100,1,사당자이아파트경로당,"서울특별시 동작구  사당로2가길  102   (사당동, 사당자이아파트)",서울특별시 동작구 사당동 1139,67,16,2,2,Y,Y,N,2023.7.31 13:59,2023.7.31 13:59,Y,,20230520,20230930,126.962548,37.488771,196687.7501,543258.499
11590134,2023,1159065100,1,삼호그린아파트경로당,"서울특별시 동작구  사당로2가길  188   (사당동, 삼호그린아파트)",서울특별시 동작구 사당동 1138,87,21,3,1,Y,Y,N,2023.7.31 13:59,2023.7.31 13:59,Y,,20230520,20230930,126.965359,37.486089,196936.2506,542960.7483
1159000181,2023,1159066000,1,코오롱하늘채아파트 경로당,서울특별시 동작구 여의대방로24다길 40,서울특별시 동작구 대방동 509,38,44,1,1,Y,Y,N,2023.7.31 13:59,2023.7.31 13:59,Y,,20230520,20230930,126.923246,37.498584,193212.8913,544349.7776
11590136,2023,1159066000,5,대방동주민센터,서울특별시 동작구  여의대방로44길  20   (대방동),서울특별시 동작구 대방동 501-2,957,80,0,4,Y,Y,Y,2023.7.31 13:59,2023.7.31 13:59,Y,,20230520,20230930,126.92634,37.508168,193487.2467,545413.2485
11590137,2023,1159066000,2,동작종합사회복지관,서울특별시 동작구  등용로  47   (대방동),서울특별시 동작구 대방동 5-1,115,60,4,3,Y,Y,Y,2023.7.31 13:59,2023.7.31 13:59,Y,,20230520,20230930,126.933343,37.505767,194106.2516,545146.2512
11590138,2023,1159066000,2,대방종합사회복지관,"서울특별시 동작구  여의대방로44길  47   (대방동, 대방2단지주공아파트)",서울특별시 동작구 대방동 503,22,15,1,1,Y,Y,Y,2023.7.31 13:59,2023.7.31 13:59,Y,,20230520,20230930,126.930093,37.510171,193819.2541,545635.2473
11590139,2023,1159066000,1,대방중앙경로당,서울특별시 동작구  여의대방로24라길  4   (대방동),서울특별시 동작구 대방동 407-48,204,80,3,2,Y,Y,N,2023.7.31 13:59,2023.7.31 13:59,Y,,20230520,20230930,126.922618,37.498115,193157.2544,544297.748
11590140,2023,1159066000,1,북대방경로당,서울특별시 동작구  여의대방로54길  24   (대방동),서울특별시 동작구 대방동 346-19호,123,60,1,1,Y,Y,N,2023.7.31 13:59,2023.7.31 13:59,Y,,20230520,20230930,126.927798,37.512129,193616.5031,545852.7469
11590141,2023,1159066000,1,대방주공1단지아파트경로당,"서울특별시 동작구  여의대방로44길  47   (대방동, 대방2단지주공아파트)",서울특별시 동작구 대방동 503,155,60,3,3,Y,Y,N,2023.7.31 13:59,2023.7.31 13:59,Y,,20230520,20230930,126.930273,37.51091,193835.247,545717.2551
11590142,2023,1159066000,1,대방주공2단지아파트경로당,"서울특별시 동작구  여의대방로44길  47   (대방동, 대방2단지주공아파트)",서울특별시 동작구 대방동 503,126,60,2,1,Y,Y,N,2023.7.31 13:59,2023.7.31 13:59,Y,,20230520,20230930,126.930025,37.509783,193813.2542,545592.2553
11590143,2023,1159066000,1,대방대림아파트 경로당,"서울특별시 동작구  여의대방로44길  10   (대방동, 대방동 대림아파트 아파트동)",서울특별시 동작구 대방동 501,168,60,4,1,Y,Y,N,2023.7.31 13:59,2023.7.31 13:59,Y,,20230520,20230930,126.924774,37.507593,193348.7541,545349.496
11590144,2023,1159066000,1,성원아파트경로당,서울특별시 동작구  여의대방로  256   (대방동),서울특별시 동작구 대방동 500,30,20,0,1,Y,Y,N,2023.7.31 13:59,2023.7.31 13:59,Y,,20230520,20230930,126.926146,37.509555,193470.259,545567.1457
11590145,2023,1159066000,1,우정A.경로당,"서울특별시 동작구  여의대방로62길  23   (대방동, 우정아파트)",서울특별시 동작구 대방동 505,101,60,1,1,Y,Y,N,2023.7.31 13:59,2023.7.31 13:59,Y,,20230520,20230930,126.929735,37.514241,193788.0013,546087.0002
11590146,2023,1159066000,1,대방경로당,"서울특별시 동작구  여의대방로36길  99 , 학구단위노인회 (대방동)",서울특별시 동작구 대방동 20-6 학구단위노인회,82,40,2,2,Y,Y,N,2023.7.31 13:59,2023.7.31 13:59,Y,,20230520,20230930,126.931511,37.508712,193944.4977,545473.247
11590147,2023,1159066000,1,대방e-편한아파트경로당,"서울특별시 동작구  알마타길  37   (대방동, 대방1차e-편한세상)",서울특별시 동작구 대방동 508,66,40,2,1,Y,Y,N,2023.7.31 13:59,2023.7.31 13:59,Y,,20230520,20230930,126.928994,37.512065,193722.2463,545845.4967
11590148,2023,1159066000,1,대방2차e편한세상아파트 경로당,"서울특별시 동작구  알마타길  53   (대방동, 대방2차e-편한세상)",서울특별시 동작구 대방동 507,21,20,1,1,Y,Y,N,2023.7.31 13:59,2023.7.31 13:59,Y,,20230520,20230930,126.930979,37.512136,193897.7484,545853.2462
11590149,2023,1159066000,1,대방2차현대아파트 경로당,"서울특별시 동작구  알마타길  58   (대방동, 대방2차현대아파트)",서울특별시 동작구 대방동 506,76,40,3,1,Y,Y,N,2023.7.31 13:59,2023.7.31 13:59,Y,,20230520,20230930,126.931308,37.510856,193926.7497,545711.25
11590150,2023,1159066000,1,경남아너스빌아파트경로당,"서울특별시 동작구  여의대방로54길  6   (대방동, 대방동경남아너스빌)",서울특별시 동작구 대방동 512,65,40,2,1,Y,Y,N,2023.7.31 13:59,2023.7.31 13:59,Y,,20230520,20230930,126.925697,37.511493,193430.7485,545782.2481
11590151,2023,1159066000,1,신일해피트리아파트 경로당,"서울특별시 동작구  여의대방로62길  7   (대방동, 대방동신일해피트리)",서울특별시 동작구 대방동 510,78,40,1,1,Y,Y,N,2023.7.31 13:59,2023.7.31 13:59,Y,,20230520,20230930,126.927556,37.514079,193595.3096,546069.1442
11590152,2023,1159066000,1,신대방2동경로당,서울특별시 동작구  여의대방로24가길  2   (대방동),서울특별시 동작구 대방동 407-8,290,72,7,2,Y,Y,N,2023.7.31 13:59,2023.7.31 13:59,Y,,20230520,20230930,126.921258,37.498209,193037.0014,544308.2472
11590153,2023,1159066000,1,대방동 현대1차아파트 경로당,"서울특별시 동작구  등용로  127   (대방동, 대방동현대아파트)",서울특별시 동작구 대방동 502,114,60,2,1,Y,Y,N,2023.7.31 13:59,2023.7.31 13:59,Y,,20230520,20230930,126.930814,37.512784,193883.2488,545925.2543
11590154,2023,1159066000,2,동작노인종합복지관,"서울특별시 동작구  상도로11길  7 , 동작노인복지관 (대방동)",서울특별시 동작구 대방동 335-10 동작노인복지관,26,25,1,2,Y,Y,Y,2023.7.31 13:59,2023.7.31 13:59,Y,,20230520,20230930,126.929135,37.500419,193733.7478,544552.9972
11590155,2023,1159067000,5,신대방1동주민센터,서울특별시 동작구  신대방길  72   (신대방동),서울특별시 동작구 신대방동 604-8,749,60,4,1,Y,Y,Y,2023.7.31 13:59,2023.7.31 13:59,Y,,20230520,20230930,126.910039,37.488945,192044.0029,543280.9975
11590156,2023,1159067000,1,신대방1동경로당,서울특별시 동작구 신대방1길 18,서울특별시 동작구 신대방동 693-10,162,162,2,1,Y,Y,N,2023.7.31 13:59,2023.7.31 13:59,Y,,20230520,20230930,126.91066,37.486879,192098.7144,543051.5909
11590157,2023,1159067000,1,우성1차아파트경로당,"서울특별시 동작구  여의대방로  22   (신대방동, 우성아파트)",서울특별시 동작구 신대방동 565,125,125,3,4,Y,Y,N,2023.7.31 13:59,2023.7.31 13:59,Y,,20230520,20230930,126.911601,37.492289,192182.5012,543651.9958
11590158,2023,1159067000,1,경남교수아파트 경로당,"서울특별시 동작구  여의대방로10길  14   (신대방동, 경남교수아파트)",서울특별시 동작구 신대방동 710,63,63,2,2,Y,Y,N,2023.7.31 13:59,2023.7.31 13:59,Y,,20230520,20230930,126.913533,37.496032,192353.7472,544067.2501
11590159,2023,1159067000,1,현대아파트 경로당,"서울특별시 동작구  여의대방로  28   (신대방동, 현대아파트)",서울특별시 동작구 신대방동 707,93,93,3,2,Y,Y,N,2023.7.31 13:59,2023.7.31 13:59,Y,,20230520,20230930,126.911703,37.494787,192191.7462,543929.2549
11590160,2023,1159067000,1,우성2차아파트경로당,"서울특별시 동작구  여의대방로  8   (신대방동, 신대방2차우성아파트)",서울특별시 동작구 신대방동 565-21,119,119,3,2,Y,Y,N,2023.7.31 13:59,2023.7.31 13:59,Y,,20230520,20230930,126.910416,37.492984,192077.7531,543729.253
11590161,2023,1159067000,1,보라매롯데낙천대아파트경로당,"서울특별시 동작구  여의대방로10길  38   (신대방동, 보라매롯데낙천대아파트)",서울특별시 동작구 신대방동 713,136,136,2,1,Y,Y,N,2023.7.31 13:59,2023.7.31 13:59,Y,,20230520,20230930,126.913677,37.494329,192366.2459,543878.2499
11590162,2023,1159067000,1,현진에버빌아파트 경로당,"서울특별시 동작구  신대방1나길  45   (신대방동, 현진에버빌)",서울특별시 동작구 신대방동 716,56,55,2,2,Y,Y,N,2023.7.31 13:59,2023.7.31 13:59,Y,,20230520,20230930,126.907083,37.48599,191782.2461,542953.2521
11590163,2023,1159067000,1,경남아파트 경로당,"서울특별시 동작구  신대방길  85   (신대방동, 경남아파트)",서울특별시 동작구 신대방동 712,83,83,2,2,Y,Y,N,2023.7.31 13:59,2023.7.31 13:59,Y,,20230520,20230930,126.908456,37.489449,191903.9971,543337.0034
11590164,2023,1159067000,1,숲속마을신동아파밀리에아파트 경로당,"서울특별시 동작구  여의대방로10길  100   (신대방동, 숲속마을 신동아 파밀리에)",서울특별시 동작구 신대방동 717,74,74,1,2,Y,Y,N,2023.7.31 13:59,2023.7.31 13:59,Y,,20230520,20230930,126.914531,37.491733,192441.4965,543590.0034
11590165,2023,1159067000,1,동작상떼빌아파트 경로당,"서울특별시 동작구  신대방1가길  38   (신대방동, 동작상떼빌)",서울특별시 동작구 신대방동 719,165,164,2,3,Y,Y,N,2023.7.31 13:59,2023.7.31 13:59,Y,,20230520,20230930,126.907084,37.487637,191782.4972,543136.0029
11590168,2023,1159068000,5,신대방2동주민센터,서울특별시 동작구 여의대방로24길 76,서울특별시 동작구 신대방동 723,1030,257,10,4,Y,Y,Y,2023.7.31 13:59,2023.7.31 13:59,Y,,20230520,20230930,126.924523,37.498416,193325.7536,544330.9961
11590169,2023,1159068000,1,한성아파트 경로당,"서울특별시 동작구  여의대방로10길  13   (신대방동, 한성아파트)",서울특별시 동작구 신대방동 470-8,40,10,2,2,Y,Y,N,2023.7.31 13:59,2023.7.31 13:59,Y,,20230520,20230930,126.915276,37.49556,192507.7542,544014.7464
11590170,2023,1159068000,1,보라매e편한세상아파트경로당,"서울특별시 동작구  보라매로  70   (신대방동, 보라매 e편한세상)",서울특별시 동작구 신대방동 720,100,24,3,1,Y,Y,N,2023.7.31 13:59,2023.7.31 13:59,Y,,20230520,20230930,126.928506,37.495506,193677.7497,544007.7489
11590171,2023,1159068000,1,보라매파크빌아파트 경로당,"서울특별시 동작구  여의대방로10길  59   (신대방동, 보라매파크빌아파트)",서울특별시 동작구 신대방동 711,79,19,1,2,Y,Y,N,2023.7.31 13:59,2023.7.31 13:59,Y,,20230520,20230930,126.915576,37.494398,192534.2473,543885.7445
11590172,2023,1159068000,1,신대방벽산아파트경로당,서울특별시 동작구 여의대방로22길 24,서울특별시 동작구 신대방동 709,24,15,5,1,Y,Y,N,2023.7.31 13:59,2023.7.31 13:59,Y,,20230520,20230930,126.921748,37.497416,193080.249,544220.2539
1162000206,2023,1162052000,1,보라매경로당,서울특별시 관악구 봉천로21길 35,서울특별시 관악구 봉천동 662-109,366,46,3,4,Y,Y,N,2023.7.31 13:59,2023.7.31 13:59,Y,,20230520,20230930,126.934067,37.488469,194168.9661,543226.3862
1162000207,2023,1162052000,1,당곡경로당,서울특별시 관악구 당곡6길 37,서울특별시 관악구 봉천동 717-17,106,14,6,2,Y,Y,N,2023.7.31 13:59,2023.7.31 13:59,Y,,20230520,20230930,126.929432,37.492222,193759.3545,543643.1949
1162000208,2023,1162052500,1,보라매삼성(아)경로당,서울특별시 관악구 보라매로 62,서울특별시 관악구 봉천동 1698-1,79,10,4,2,Y,Y,N,2023.7.31 13:59,2023.7.31 13:59,Y,,20230520,20230930,126.928018,37.494076,193634.4564,543849.0705
11620157,2023,1162052000,5,보라매동주민센터,서울특별시 관악구 봉천로 279-8 ,서울특별시 관악구 봉천동 661,338,26,2,1,Y,Y,Y,2023.7.31 13:59,2023.7.31 13:59,Y,,20230520,20230930,126.932805,37.488167,194057.2791,543192.9582
11620005,2023,1162052000,2,관악노인종합복지관,서울특별시 관악구 보라매로 35,서울특별시 관악구 봉천동 726-3,424,106,0,2,Y,Y,N,2023.7.31 13:59,2023.7.31 13:59,Y,,20230520,20230930,126.926328,37.49303,193484.9147,543733.0716
1162000326,2023,1162054500,1,구립청림경로당,서울특별시 관악구 청림2길 37,서울특별시 관악구 봉천동 15-41,310,39,3,3,Y,Y,N,2023.7.31 13:59,2023.7.31 13:59,Y,,20230520,20230930,126.958287,37.486667,196310.8182,543025.1079
1162000210,2023,1162054500,1,푸르지오(아)경로당,서울특별시 관악구 관악로30길 27,서울특별시 관악구 봉천동 1717,221,28,10,3,Y,Y,N,2023.7.31 13:59,2023.7.31 13:59,Y,,20230520,20230930,126.960874,37.487215,196539.6762,543085.8748
1162000211,2023,1162054500,1,관악현대(아) 경로당,서울특별시 관악구 관악로 304,서울특별시 관악구 봉천동 1000,597,75,5,4,Y,Y,N,2023.7.31 13:59,2023.7.31 13:59,Y,,20230520,20230930,126.958339,37.492179,196315.6968,543636.9208
1162000212,2023,1162054500,1,만수경로당,서울특별시 관악구 청림1길 9-1 ,서울특별시 관악구 봉천동 9-5,32,4,1,1,Y,Y,N,2023.7.31 13:59,2023.7.31 13:59,Y,,20230520,20230930,126.958173,37.488777,196300.8754,543259.3389
1162000213,2023,1162054500,1,관악푸르지오 삼오경로당,서울특별시 관악구 청림5길 28,서울특별시 관악구 봉천동 1717-1,215,27,4,2,Y,Y,N,2023.7.31 13:59,2023.7.31 13:59,Y,,20230520,20230930,126.960243,37.489525,196483.9785,543342.2777
11620158,2023,1162054000,5,청림동주민센터,서울특별시 관악구 관악로40길 39,서울특별시 관악구 봉천동 1000,790,22,4,4,Y,Y,Y,2023.7.31 13:59,2023.7.31 13:59,Y,,20230520,20230930,126.958597,37.491845,196338.532,543599.7967
1162000215,2023,1162056000,1,구암경로당,서울특별시 관악구 은천로23길 19,서울특별시 관악구 봉천동 480-111,122,16,2,2,Y,Y,N,2023.7.31 13:59,2023.7.31 13:59,Y,,20230520,20230930,126.948078,37.487687,195408.0378,543138.7856
1162000216,2023,1162056500,1,관악드림타운 2단지(아) 경로당,서울특별시 관악구 구암길 106,서울특별시 관악구 봉천동 1712-1,301,38,7,4,Y,Y,N,2023.7.31 13:59,2023.7.31 13:59,Y,,20230520,20230930,126.948056,37.491697,195406.32,543583.8661
1162000217,2023,1162056500,1,봉천동아(아)1단지 경로당,서울특별시 관악구 관악로 285,서울특별시 관악구 봉천동 1703,231,29,3,3,Y,Y,N,2023.7.31 13:59,2023.7.31 13:59,Y,,20230520,20230930,126.955604,37.489701,196073.7248,543361.9948
1162000218,2023,1162056500,1,봉천벽산(아) 2차 경로당,서울특별시 관악구 구암5가길 49,서울특별시 관악구 봉천동 1716,92,12,2,2,Y,Y,N,2023.7.31 13:59,2023.7.31 13:59,Y,,20230520,20230930,126.946135,37.492464,195236.4846,543669.0886
1162000219,2023,1162056500,1,관악드림타운(아) 경로당,서울특별시 관악구 성현로 80,서울특별시 관악구 봉천동 1712,324,41,4,4,Y,Y,N,2023.7.31 13:59,2023.7.31 13:59,Y,,20230520,20230930,126.950628,37.48972,195633.6604,543364.3227
1162000220,2023,1162056500,1,봉천동아(아)2단지 경로당,서울특별시 관악구 관악로37길 56,서울특별시 관악구 봉천동 1703-1,76,10,7,2,Y,Y,N,2023.7.31 13:59,2023.7.31 13:59,Y,,20230520,20230930,126.956168,37.487877,196123.5359,543159.5758
1162000221,2023,1162056500,1,성현경로당,서울특별시 관악구 은천로35길 40-3 ,서울특별시 관악구 봉천동 41-34,479,60,8,7,Y,Y,N,2023.7.31 13:59,2023.7.31 13:59,Y,,20230520,20230930,126.954203,37.488021,195949.733,543175.5963
1162000222,2023,1162060500,1,관악동부센트레빌(아) 경로당,서울특별시 관악구 은천로33길 5,서울특별시 관악구 봉천동 1719,89,11,2,3,Y,Y,N,2023.7.31 13:59,2023.7.31 13:59,Y,,20230520,20230930,126.9509,37.48717,195657.5767,543081.3048
11620160,2023,1162056000,5,성현동주민센터,서울특별시 관악구 구암길 38,서울특별시 관악구 봉천동 1712-9,358,32,7,1,Y,Y,Y,2023.7.31 13:59,2023.7.31 13:59,Y,,20230520,20230930,126.948177,37.489513,195416.8961,543341.5093
11620016,2023,1162056000,2,강감찬관악종합사회복지관,서울특별시 관악구 양녕로 70,서울특별시 관악구 봉천동 492-7,24,6,0,1,Y,Y,N,2023.7.31 13:59,2023.7.31 13:59,Y,,20230520,20230930,126.946584,37.488169,195275.9565,543192.3773
1162000223,2023,1162057000,1,신창경로당,서울특별시 관악구  행운1길  12   (봉천동),서울특별시 관악구 봉천동 1675-12,121,15,4,5,Y,Y,N,2023.7.31 13:59,2023.7.31 13:59,Y,,20230520,20230930,126.958589,37.479951,196337.235,542279.7536
1162000224,2023,1162057500,1,"봉천우성(아) 109,110동 경로당",서울특별시 관악구 관악로30길 40,서울특별시 관악구 봉천동 1706-1,93,12,4,2,Y,Y,N,2023.7.31 13:59,2023.7.31 13:59,Y,,20230520,20230930,126.961191,37.484758,196567.5994,542813.1687
1162000225,2023,1162057500,1,봉천우성(아)경로당,서울특별시 관악구 관악로30길 12,서울특별시 관악구 봉천동 1706,145,18,3,2,Y,Y,N,2023.7.31 13:59,2023.7.31 13:59,Y,,20230520,20230930,126.959539,37.484798,196421.4928,542817.6696
1162000226,2023,1162057500,1,관악파크푸르지오(아) 경로당,서울특별시 관악구 행운10길 21,서울특별시 관악구 봉천동 1728,122,16,2,1,Y,Y,N,2023.7.31 13:59,2023.7.31 13:59,Y,,20230520,20230930,126.961401,37.482669,196586.0775,542581.3097
1162000227,2023,1162057500,1,원당경로당,서울특별시 관악구 남부순환로247다길 60,서울특별시 관악구 봉천동 148-145,177,22,3,2,Y,Y,N,2023.7.31 13:59,2023.7.31 13:59,Y,,20230520,20230930,126.964113,37.478639,196825.7723,542133.9385
1162000228,2023,1162057500,1,행운경로당,서울특별시 관악구 행운9길 34,서울특별시 관악구 봉천동 1724-2,113,14,2,2,Y,Y,N,2023.7.31 13:59,2023.7.31 13:59,Y,,20230520,20230930,126.959638,37.483375,196430.181,542659.7317
1162000229,2023,1162057500,1,월드경로당,서울특별시 관악구 관악로28길 80,서울특별시 관악구 봉천동 1724,56,7,2,1,Y,Y,N,2023.7.31 13:59,2023.7.31 13:59,Y,,20230520,20230930,126.958927,37.483314,196367.2936,542652.9888
11620161,2023,1162057000,5,행운동주민센터,서울특별시 관악구 행운1길 43,서울특별시 관악구 봉천동 1670-7,690,26,5,3,Y,Y,Y,2023.7.31 13:59,2023.7.31 13:59,Y,,20230520,20230930,126.957032,37.480668,196199.5119,542359.3484
11620025,2023,1162057000,2,봉천종합사회복지관,서울특별시 관악구  관악로  254   (봉천동),서울특별시 관악구 봉천동 37,140,20,2,3,Y,Y,N,2023.7.31 13:59,2023.7.31 13:59,Y,,20230520,20230930,126.957576,37.486685,196247.9994,543027.2003
1162000230,2023,1162058000,1,백설경로당,서울특별시 관악구  관악로6길  50   (봉천동),서울특별시 관악구 봉천동 1606-11,63,8,3,3,Y,Y,N,2023.7.31 13:59,2023.7.31 13:59,Y,,20230520,20230930,126.953496,37.476247,195886.5608,541868.8694
1162000231,2023,1162058000,1,덕진경로당,서울특별시 관악구  남부순환로234길  37   (봉천동),서울특별시 관악구 봉천동 1621-23,147,19,1,6,Y,Y,N,2023.7.31 13:59,2023.7.31 13:59,Y,,20230520,20230930,126.956821,37.4777,196180.7425,542030.004
1162000232,2023,1162058500,1,인헌(아)경로당,서울특별시 관악구 낙성대로15길 66,서울특별시 관악구 봉천동 1725,31,4,4,1,Y,Y,N,2023.7.31 13:59,2023.7.31 13:59,Y,,20230520,20230930,126.962542,37.467983,196686.3459,540951.3201
11620162,2023,1162058000,5,낙성대동주민센터,서울특별시 관악구 낙성대로4가길 5,서울특별시 관악구 봉천동 1624-24,318,50,4,1,Y,Y,Y,2023.7.31 13:59,2023.7.31 13:59,Y,,20230520,20230930,126.958407,37.476304,196320.9408,541874.9702
11620034,2023,1162058500,2,관악구장애인종합복지관,서울특별시 관악구 남부순환로 1914,서울특별시 관악구 봉천동 1660-4,64,7,2,1,Y,Y,N,2023.7.31 13:59,2023.7.31 13:59,Y,,20230520,20230930,126.961846,37.477448,196625.1746,542001.8767
1162000214,2023,1162055000,1,일선경로당,서울특별시 관악구  쑥고개로26길  24   (봉천동),서울특별시 관악구 봉천동 1587-7,130,17,8,2,Y,Y,N,2023.7.31 13:59,2023.7.31 13:59,Y,,20230520,20230930,126.949527,37.477823,195535.6005,542043.9983
1162000233,2023,1162059500,1,삼성(아) 경로당,서울특별시 관악구 관악로 125,서울특별시 관악구 봉천동 1591-2,52,7,2,2,Y,Y,N,2023.7.31 13:59,2023.7.31 13:59,Y,,20230520,20230930,126.952142,37.476082,195766.7855,541850.6166
1162000234,2023,1162059500,1,서울대입구아이원(아)경로당,서울특별시 관악구 청룡길 78,서울특별시 관악구 봉천동 1560-61,141,18,5,2,Y,Y,N,2023.7.31 13:59,2023.7.31 13:59,Y,,20230520,20230930,126.944955,37.478271,195131.2111,542093.9136
1162000235,2023,1162059500,1,갑을(아)경로당,서울특별시 관악구 관악로5길 42,서울특별시 관악구 봉천동 1700,71,9,2,1,Y,Y,N,2023.7.31 13:59,2023.7.31 13:59,Y,,20230520,20230930,126.952114,37.474829,195764.2381,541711.5517
1162000236,2023,1162059500,1,건영6차(아)경로당,서울특별시 관악구 관악로 133,서울특별시 관악구 봉천동 1701,151,19,4,2,Y,Y,N,2023.7.31 13:59,2023.7.31 13:59,Y,,20230520,20230930,126.951914,37.477026,195746.6716,541955.3982
1162000237,2023,1162059500,1,송현경로당,서울특별시 관악구 장군봉1길 45-6 ,서울특별시 관악구 봉천동 927-22,199,25,6,3,Y,Y,N,2023.7.31 13:59,2023.7.31 13:59,Y,,20230520,20230930,126.942473,37.481889,194911.9209,542495.5947
11620159,2023,1162055000,5,청룡동주민센터,서울특별시 관악구 쑥고개로 44,서울특별시 관악구 봉천동 1539-1,1441,41,6,5,Y,Y,Y,2023.7.31 13:59,2023.7.31 13:59,Y,,20230520,20230930,126.941623,37.479135,194836.5781,542189.9281
1162000204,2023,1162051000,1,국지경로당,서울특별시 관악구  국회단지21길  14   (봉천동),서울특별시 관악구 봉천동 635-68,344,43,4,3,Y,Y,N,2023.7.31 13:59,2023.7.31 13:59,Y,,20230520,20230930,126.941507,37.49026,194827.0585,543424.7177
1162000205,2023,1162051000,1,은천경로당,서울특별시 관악구  봉천로27길  45   (봉천동),서울특별시 관악구 봉천동 936-6,111,14,4,3,Y,Y,N,2023.7.31 13:59,2023.7.31 13:59,Y,,20230520,20230930,126.940835,37.485758,194767.3149,542925.0922
1162000238,2023,1162059500,1,벽산블루밍3차(아)경로당,서울특별시 관악구 은천로15길 24,서울특별시 관악구 봉천동 1720,56,7,2,2,Y,Y,N,2023.7.31 13:59,2023.7.31 13:59,Y,,20230520,20230930,126.944357,37.488275,195078.947,543204.2672
1162000239,2023,1162059500,1,두산(아)1단지 경로당,서울특별시 관악구 봉천로 387,서울특별시 관악구 봉천동 1708,178,23,5,3,Y,Y,N,2023.7.31 13:59,2023.7.31 13:59,Y,,20230520,20230930,126.945373,37.486744,195168.7558,543034.3048
1162000240,2023,1162060500,1,벽산블루밍(아)2단지 경로당,서울특별시 관악구 은천로 93,서울특별시 관악구 봉천동 1718,137,17,4,2,Y,Y,N,2023.7.31 13:59,2023.7.31 13:59,Y,,20230520,20230930,126.944698,37.489288,195109.1974,543316.6679
1162000241,2023,1162060500,1,벽산블루밍(아)3단지 경로당,서울특별시 관악구 양녕로 117,서울특별시 관악구 봉천동 1718-1,137,17,2,2,Y,Y,N,2023.7.31 13:59,2023.7.31 13:59,Y,,20230520,20230930,126.942707,37.491766,194933.2846,543591.7987
1162000242,2023,1162060500,1,두산(아)2단지 경로당,서울특별시 관악구 은천로 86,서울특별시 관악구 봉천동 1708-1,190,24,6,2,Y,Y,N,2023.7.31 13:59,2023.7.31 13:59,Y,,20230520,20230930,126.945219,37.486122,195155.0957,542965.2678
1162000243,2023,1162060500,1,벽산블루밍(아)1단지 경로당,서울특별시 관악구 은천로 93,서울특별시 관악구 봉천동 1718,137,17,4,2,Y,Y,N,2023.7.31 13:59,2023.7.31 13:59,Y,,20230520,20230930,126.944698,37.489288,195109.1974,543316.6679
1121500109,2023,1121578000,11,능동 정자마당공원,서울특별시 광진구 능동 369-12,서울특별시 광진구 능동 369-12,1518,20,0,0,N,Y,Y,2023.7.31 13:59,2023.7.31 13:59,Y,,,,127.079339,37.553445,207010.5571,550438.7555
1162000244,2023,1162060500,1,두산(아)임대 3단지 경로당,서울특별시 관악구 양녕로 31,서울특별시 관악구 봉천동 1708-2,99,13,4,2,Y,Y,N,2023.7.31 13:59,2023.7.31 13:59,Y,,20230520,20230930,126.945965,37.485182,195220.9869,542860.891
1162000245,2023,1162060500,1,국사봉경로당,서울특별시 관악구 은천로15길 13-2 ,서울특별시 관악구 봉천동 622-70,202,26,16,3,Y,Y,N,2023.7.31 13:59,2023.7.31 13:59,Y,,20230520,20230930,126.943705,37.487504,195021.26,543118.7195
11620156,2023,1162051000,5,은천동주민센터,서울특별시 관악구 봉천로33나길 30,서울특별시 관악구 봉천동 905-29,48,35,1,1,Y,Y,Y,2023.7.31 13:59,2023.7.31 13:59,Y,,20230520,20230930,126.942415,37.485312,194906.9968,542875.4499
1162000246,2023,1162061000,1,중앙경로당,서울특별시 관악구  은천로26길  14   (봉천동),서울특별시 관악구 봉천동 457-208,200,25,4,3,Y,Y,N,2023.7.31 13:59,2023.7.31 13:59,Y,,20230520,20230930,126.950413,37.485929,195614.3982,542943.6039
1162000247,2023,1162061500,1,장수경로당,서울특별시 관악구 양녕로6다길 11-4 ,서울특별시 관악구 봉천동 1512-9,94,12,5,3,Y,Y,N,2023.7.31 13:59,2023.7.31 13:59,Y,,20230520,20230930,126.949368,37.484464,195521.9153,542781.0352
1162000248,2023,1162061500,1,신봉(아) 경로당,서울특별시 관악구 양녕로6나길 18,서울특별시 관악구 봉천동 1705,55,7,1,2,Y,Y,N,2023.7.31 13:59,2023.7.31 13:59,Y,,20230520,20230930,126.949486,37.484889,195532.377,542828.199
11620164,2023,1162061000,5,중앙동주민센터,서울특별시 관악구 양녕로6다길 7,서울특별시 관악구 봉천동 1512-7,704,14,4,2,Y,Y,Y,2023.7.31 13:59,2023.7.31 13:59,Y,,20230520,20230930,126.949755,37.484193,195556.0828,542750.9617
11620053,2023,1162061000,2,중앙사회복지관,서울특별시 관악구  봉천로41길  33   (봉천동),서울특별시 관악구 봉천동 890-7,66,17,2,1,Y,Y,N,2023.7.31 13:59,2023.7.31 13:59,Y,,20230520,20230930,126.948071,37.48436,195407.1974,542769.5995
1162000249,2023,1162062000,1,인헌경로당,서울특별시 관악구  낙성대역3길  6-6  (봉천동),서울특별시 관악구 봉천동 1709-5,200,25,3,2,Y,Y,N,2023.7.31 13:59,2023.7.31 13:59,Y,,20230520,20230930,126.96182,37.475853,196622.8031,541824.7985
1162000250,2023,1162062500,1,은천2단지(아) 경로당,서울특별시 관악구 인헌12길 47,서울특별시 관악구 봉천동 180-38,99,13,2,2,Y,Y,N,2023.7.31 13:59,2023.7.31 13:59,Y,,20230520,20230930,126.964549,37.469963,196864.0097,541171.0489
1162000251,2023,1162062500,1,반석푸른숲경로당,서울특별시 관악구 인헌16다길 14,서울특별시 관악구 봉천동 1723,41,5,1,1,Y,Y,N,2023.7.31 13:59,2023.7.31 13:59,Y,,20230520,20230930,126.965768,37.468489,196971.7486,541007.3706
1162000252,2023,1162062500,1,덕양경로당,서울특별시 관악구 인헌4길 20,서울특별시 관악구 봉천동 1637-13,400,50,7,4,Y,Y,N,2023.7.31 13:59,2023.7.31 13:59,Y,,20230520,20230930,126.965907,37.474825,196984.2995,541710.5767
1162000253,2023,1162062500,1,밤골경로당,서울특별시 관악구 인헌3가길 8,서울특별시 관악구 봉천동 1642-4,98,13,4,2,Y,Y,N,2023.7.31 13:59,2023.7.31 13:59,Y,,20230520,20230930,126.967356,37.4739,197112.4354,541607.8687
1162000254,2023,1162062500,1,낙성대현대(아) 경로당,서울특별시 관악구 남부순환로248길 56,서울특별시 관악구 봉천동 181-6,142,18,2,1,Y,Y,N,2023.7.31 13:59,2023.7.31 13:59,Y,,20230520,20230930,126.96554,37.472731,196951.7514,541478.1827
11620165,2023,1162062000,5,인헌동주민센터,서울특별시 관악구 남부순환로246가길 20,서울특별시 관악구 봉천동 1635-40,500,28,4,4,Y,Y,Y,2023.7.31 13:59,2023.7.31 13:59,Y,,20230520,20230930,126.965331,37.475118,196933.3613,541743.1143
1162000256,2023,1162063000,1,구립예촌경로당,서울특별시 관악구  남현길  41   (남현동),서울특별시 관악구 남현동 1083-1,198,25,3,6,Y,Y,N,2023.7.31 13:59,2023.7.31 13:59,Y,,20230520,20230930,126.976775,37.474707,197945.6,541697.1988
1162000257,2023,1162063000,1,관수경로당,서울특별시 관악구 승방3나길 14,서울특별시 관악구 남현동 602-196,63,8,2,2,Y,Y,N,2023.7.31 13:59,2023.7.31 13:59,Y,,20230520,20230930,126.98054,37.47288,198278.6187,541494.3398
11620166,2023,1162063000,5,남현동주민센터,서울특별시 관악구 남현1가길 29,서울특별시 관악구 남현동 1086-1,172,42,0,1,Y,Y,Y,2023.7.31 13:59,2023.7.31 13:59,Y,,20230520,20230930,126.977875,37.474688,198042.9534,541695.0444
1162000258,2023,1162064000,1,신본경로당,서울특별시 관악구 남부순환로200다길 7,서울특별시 관악구 신림동 1510-6,353,44,2,5,Y,Y,N,2023.7.31 13:59,2023.7.31 13:59,Y,,20230520,20230930,126.936493,37.482595,194383.0353,542574.3135
1162000259,2023,1162064500,1,서원경로당,서울특별시 관악구 서원3길 10,서울특별시 관악구 신림동 409-26,238,30,3,6,Y,Y,N,2023.7.31 13:59,2023.7.31 13:59,Y,,20230520,20230930,126.933228,37.476832,194093.8321,541934.8748
1162000260,2023,1162064500,1,신관경로당,서울특별시 관악구 신림로48길 25,서울특별시 관악구 신림동 91-50,396,50,0,4,Y,Y,N,2023.7.31 13:59,2023.7.31 13:59,Y,,20230520,20230930,126.933451,37.479402,194113.7587,542220.0965
1162000261,2023,1162064500,1,성우(아)경로당,서울특별시 관악구 남부순환로198길 7,서울특별시 관악구 신림동 10-622,75,10,2,2,Y,Y,N,2023.7.31 13:59,2023.7.31 13:59,Y,,20230520,20230930,126.937157,37.48358,194441.8629,542683.5738
11620167,2023,1162064500,5,서원동주민센터,서울특별시 관악구 신림로 282,서울특별시 관악구 신림동 1641-65,1311,43,4,3,Y,Y,Y,2023.7.31 13:59,2023.7.31 13:59,Y,,20230520,20230930,126.93127,37.479783,193920.916,542262.4877
1162000262,2023,1162065000,1,신일경로당,서울특별시 관악구 문성로32길 18,서울특별시 관악구 신림동 1630-30,362,46,4,2,Y,Y,N,2023.7.31 13:59,2023.7.31 13:59,Y,,20230520,20230930,126.928699,37.478502,193693.3522,542120.5051
1162000263,2023,1162065500,1,신원경로당,서울특별시 관악구 남부순환로170길 6,서울특별시 관악구 신림동 1581-6,254,32,4,2,Y,Y,N,2023.7.31 13:59,2023.7.31 13:59,Y,,20230520,20230930,126.924382,37.48269,193311.901,542585.6264
1162000264,2023,1162065500,1,동부(아)경로당,서울특별시 관악구 신원로 26,서울특별시 관악구 신림동 1695,84,11,3,1,Y,Y,N,2023.7.31 13:59,2023.7.31 13:59,Y,,20230520,20230930,126.929332,37.480464,193749.5227,542338.2298
11620168,2023,1162065000,5,신원동주민센터,서울특별시 관악구 신원로3길 13,서울특별시 관악구 신림동 1601-3,200,23,4,2,Y,Y,Y,2023.7.31 13:59,2023.7.31 13:59,Y,,20230520,20230930,126.92736,37.48178,193575.2149,542484.4211
1162000265,2023,1162066000,1,서림경로당,서울특별시 관악구  서림3길  47   (신림동),서울특별시 관악구 신림동 103-141,52,7,1,2,Y,Y,N,2023.7.31 13:59,2023.7.31 13:59,Y,,20230520,20230930,126.940623,37.472323,194747.5983,541433.9982
1162000266,2023,1162066500,1,서광경로당,서울특별시 관악구 참숯5길 38,서울특별시 관악구 신림동 1564-64,198,25,3,3,Y,Y,N,2023.7.31 13:59,2023.7.31 13:59,Y,,20230520,20230930,126.941748,37.476107,194847.3646,541853.9204
1162000267,2023,1162066500,1,신림현대(아)경로당,서울특별시 관악구 신림로29길 8,서울특별시 관악구 신림동 1694,298,37,4,3,Y,Y,N,2023.7.31 13:59,2023.7.31 13:59,Y,,20230520,20230930,126.932394,37.47504,194019.9198,541736.0395
1162000268,2023,1162066500,1,행복경로당,서울특별시 관악구 신림로36길 12-10 ,서울특별시 관악구 신림동 94-115,203,26,3,3,Y,Y,N,2023.7.31 13:59,2023.7.31 13:59,Y,,20230520,20230930,126.937932,37.475623,194509.8432,541800.3741
11620169,2023,1162066000,5,서림동주민센터,서울특별시 관악구 신림로29길 6,서울특별시 관악구 신림동 1694-7,780,23,4,4,Y,Y,Y,2023.7.31 13:59,2023.7.31 13:59,Y,,20230520,20230930,126.934989,37.474991,194249.4829,541730.3951
1162000317,2023,1162068500,1,구립어울림경로당,서울특별시 관악구 남부순환로149길 34-2 ,서울특별시 관악구 신림동 524-14,224,28,2,4,Y,Y,N,2023.7.31 13:59,2023.7.31 13:59,Y,,20230520,20230930,126.915494,37.483588,192525.9101,542685.9498
1162000270,2023,1162068000,1,신사경로당,서울특별시 관악구 조원로 151-1 ,서울특별시 관악구 신림동 480-21,695,87,3,4,Y,Y,N,2023.7.31 13:59,2023.7.31 13:59,Y,,20230520,20230930,126.919115,37.48591,192846.3459,542943.3465
1162000271,2023,1162068500,1,신림우방(아)경로당,서울특별시 관악구 관천로27길 2,서울특별시 관악구 신림동 1715,109,14,3,2,Y,Y,N,2023.7.31 13:59,2023.7.31 13:59,Y,,20230520,20230930,126.918796,37.488964,192818.443,543282.369
11620171,2023,1162068000,5,신사동주민센터,서울특별시 관악구 조원로 142,서울특별시 관악구 신림동 492-4,196,38,4,1,Y,Y,Y,2023.7.31 13:59,2023.7.31 13:59,Y,,20230520,20230930,126.9181,37.4855,192756.5553,542897.9639
1162000272,2023,1162069000,1,새들경로당,서울특별시 관악구  관천로20길  43   (신림동),서울특별시 관악구 신림동 1451-8,75,10,5,3,Y,Y,N,2023.7.31 13:59,2023.7.31 13:59,Y,,20230520,20230930,126.925078,37.488424,193374.0012,543221.9976
1162000273,2023,1162069500,1,보라매갑을(아)경로당,서울특별시 관악구 관천로24길 3,서울특별시 관악구 신림동 1718,52,7,3,1,Y,Y,N,2023.7.31 13:59,2023.7.31 13:59,Y,,20230520,20230930,126.921849,37.489001,193088.449,543286.247
1162000274,2023,1162069500,1,색동경로당,서울특별시 관악구 신림로70길 74,서울특별시 관악구 신림동 1418-1,86,11,1,2,Y,Y,N,2023.7.31 13:59,2023.7.31 13:59,Y,,20230520,20230930,126.932689,37.486505,194046.9059,543008.4388
11620172,2023,1162069000,5,신림동주민센터,서울특별시 관악구 신림동길 14,서울특별시 관악구 신림동 1439-3,1038,32,4,1,Y,Y,Y,2023.7.31 13:59,2023.7.31 13:59,Y,,20230520,20230930,126.9271,37.487394,193552.6657,543107.4742
1162000276,2023,1162071000,1,난향경로당,서울특별시 관악구 난곡로9길 29-2 ,서울특별시 관악구 신림동 678-4,97,12,4,2,Y,Y,N,2023.7.31 13:59,2023.7.31 13:59,Y,,20230520,20230930,126.918133,37.464043,192757.4391,540516.5443
1162000277,2023,1162071500,1,휴먼시아(아)제3단지경로당,서울특별시 관악구 난곡로 63,서울특별시 관악구 신림동 1735-2,82,11,5,1,Y,Y,N,2023.7.31 13:59,2023.7.31 13:59,Y,,20230520,20230930,126.918182,37.461245,192761.4955,540206.0229
1162000278,2023,1162071500,1,휴먼시아(아)2경로당,서울특별시 관악구 난곡로 55,서울특별시 관악구 신림동 1735,73,9,2,1,Y,Y,N,2023.7.31 13:59,2023.7.31 13:59,Y,,20230520,20230930,126.921856,37.460088,193086.4053,540077.2913
1162000279,2023,1162071500,1,휴먼시아(아)1경로당,서울특별시 관악구 난곡로 30,서울특별시 관악구 신림동 1735-1,170,22,6,2,Y,Y,N,2023.7.31 13:59,2023.7.31 13:59,Y,,20230520,20230930,126.922054,37.461503,193104.0175,540234.3447
1162000305,2023,1162076500,1,신림쌍용(아)경로당,서울특별시 관악구 미성길 122,서울특별시 관악구 신림동 1686,144,18,3,1,Y,Y,N,2023.7.31 13:59,2023.7.31 13:59,Y,,20230520,20230930,126.911836,37.472249,192201.1741,541427.7799
11140017,2023,1114060500,5,을지로동 주민센터,서울특별시 중구 충무로9길 20,서울특별시 중구 을지로3가 95-7,30,10,0,2,Y,N,N,2023.7.31 13:59,2023.7.31 13:59,Y,,20230520,20230930,126.99137,37.567018,199237.571,551942.3744
11140018,2023,1114060500,1,을지경로당,서울특별시 중구 을지로28길 16,서울특별시 중구 을지로4가 178-1,205,45,2,4,Y,Y,N,2023.7.31 13:59,2023.7.31 13:59,Y,,20230520,20230930,126.998885,37.565962,199901.4924,551825.0476
1114000082,2023,1114061500,99,신당누리도서관,서울특별시 중구 다산로33길 3,서울특별시 중구 신당동 300-6,468,117,0,4,Y,Y,N,2023.7.31 13:59,2023.7.31 13:59,Y,,20230522,20230930,127.014576,37.562099,201287.8476,551396.4326
1114000069,2023,1114061500,99,충무아트센터,서울특별시 중구 퇴계로 387,서울특별시 중구 흥인동 131,130,27,0,1,Y,Y,N,2023.7.31 13:59,2023.7.31 13:59,Y,,20230520,20230930,127.014787,37.565837,201306.4335,551811.3539
11140019,2023,1114061500,5,신당동 주민센터,서울특별시 중구 다산로33길 3,서울특별시 중구 신당동 300-6,550,50,2,6,Y,Y,N,2023.7.31 13:59,2023.7.31 13:59,Y,,20230520,20230930,127.014552,37.562105,201285.6564,551397.1093
11140020,2023,1114061500,1,신당경로당,서울특별시 중구 다산로29길 10,서울특별시 중구 신당동 298-74,663,37,3,6,Y,Y,N,2023.7.31 13:59,2023.7.31 13:59,Y,,20230520,20230930,127.013465,37.561045,201189.714,551279.392
11140021,2023,1114061500,1,신일경로당,서울특별시 중구 청구로 121,서울특별시 중구 신당동 393-9,578,50,4,4,Y,Y,N,2023.7.31 13:59,2023.7.31 13:59,Y,,20230520,20230930,127.010197,37.562608,200900.8944,551452.8635
1114000083,2023,1114062500,99,다산성곽도서관,서울특별시 중구 동호로17길 173,서울특별시 중구 신당동 432-612,975,243,0,10,Y,Y,N,2023.7.31 13:59,2023.7.31 13:59,Y,,20230522,20230930,127.004324,37.551732,200382.1142,550245.7278
1114000078,2023,1114062500,99,가온도서관,서울특별시 중구 동호로14길 18,서울특별시 중구 신당동 425-11,966,241,0,6,Y,Y,N,2023.7.31 13:59,2023.7.31 13:59,Y,,20230522,20230930,127.010847,37.55637,200958.3851,550760.5258
11140023,2023,1114062500,1,장수경로당,서울특별시 중구 동호로11다길 18,서울특별시 중구 신당동 353-47,444,30,4,2,Y,Y,N,2023.7.31 13:59,2023.7.31 13:59,Y,,20230520,20230930,127.007057,37.551959,200623.5857,550270.8923
11140024,2023,1114062500,2,신당종합사회복지관,서울특별시 중구 동호로11길 22,서울특별시 중구 신당동 361-18,97,50,0,4,Y,Y,N,2023.7.31 13:59,2023.7.31 13:59,Y,,20230520,20230930,127.009555,37.554452,200844.2647,550547.6826
11140025,2023,1114062500,1,다산경로당,서울특별시 중구 동호로12길 97,서울특별시 중구 신당동 386-66,452,30,5,2,Y,Y,N,2023.7.31 13:59,2023.7.31 13:59,Y,,20230520,20230930,127.012061,37.559545,201065.6342,551112.9373
11140026,2023,1114062500,1,충현경로당,서울특별시 중구 동호로17나길 5-4 ,서울특별시 중구 신당동 828-5,284,30,3,3,Y,Y,N,2023.7.31 13:59,2023.7.31 13:59,Y,,20230520,20230930,127.005679,37.554473,200501.7942,550549.9856
11140027,2023,1114062500,5,다산동 주민센터,서울특별시 중구 동호로15길 50,서울특별시 중구 신당동 432-24,85,30,1,2,Y,Y,N,2023.7.31 13:59,2023.7.31 13:59,Y,,20230520,20230930,127.008308,37.554265,200734.142,550526.9285
1114000080,2023,1114063500,99,남산타운어린이도서관,서울특별시 중구 다산로 32,서울특별시 중구 신당동 844-1,274,68,0,5,Y,N,N,2023.7.31 13:59,2023.7.31 13:59,Y,,20230522,20230930,127.0119,37.5496,201051.5664,550009.1702
1114000077,2023,1114063500,99,약수동 커뮤니티센터(악수터),서울특별시 중구 다산로 94,서울특별시 중구 신당동 366-14,45,11,0,3,Y,Y,N,2023.7.31 13:59,2023.7.31 13:59,Y,,20230522,20230930,127.009079,37.552604,200802.2688,550342.5282
1114000066,2023,1114063500,99,"중구시설관리공단 , 2층 출입구 휴게공간",서울특별시 중구 동호로8다길 22,서울특별시 중구 신당동 349-234,60,10,0,1,Y,Y,N,2023.7.31 13:59,2023.7.31 13:59,Y,,20230520,20230930,127.013366,37.5522,201181.0978,550297.7564
1114000063,2023,1114063500,2,약수노인종합복지관,서울특별시 중구 다산로6길 11,서울특별시 중구 신당동 366-18,76,20,0,2,Y,Y,N,2023.7.31 13:59,2023.7.31 13:59,Y,,20230520,20230930,127.009211,37.55248,200813.8987,550328.7779
11140028,2023,1114063500,5,약수동주민센터,서울특별시 중구 다산로 92,서울특별시 중구 신당동 366-15,1317,200,6,26,Y,Y,N,2023.7.31 13:59,2023.7.31 13:59,Y,,20230520,20230930,127.008958,37.552476,200791.587,550328.2985
11140029,2023,1114016200,1,남산숲경로당,서울특별시 중구 다산로 32,서울특별시 중구 신당동 844,134,60,5,2,N,Y,N,2023.7.31 13:59,2023.7.31 13:59,Y,,20230520,20230930,127.009776,37.549778,200863.8818,550028.8823
11140031,2023,1114063500,1,동호경로당,서울특별시 중구 동호로8길 42-22 ,서울특별시 중구 신당동 349-120,144,60,6,2,Y,Y,N,2023.7.31 13:59,2023.7.31 13:59,Y,,20230520,20230930,127.013025,37.552412,201150.9359,550321.2706
11140032,2023,1114063500,1,쌈지경로당,서울특별시 중구 다산로 32,서울특별시 중구 신당동 844,126,20,5,2,Y,Y,N,2023.7.31 13:59,2023.7.31 13:59,Y,,20230520,20230930,127.010032,37.549721,200886.4867,550022.5361
11140033,2023,1114063500,1,하늘경로당,서울특별시 중구 다산로 32,서울특별시 중구 신당동 844,307,70,6,3,Y,Y,N,2023.7.31 13:59,2023.7.31 13:59,Y,,20230520,20230930,127.009191,37.549294,200812.166,549975.2144
11140034,2023,1114063500,1,약수경로당,서울특별시 중구 다산로10길 10-12 ,서울특별시 중구 신당동 368-80,177,70,6,2,Y,Y,N,2023.7.31 13:59,2023.7.31 13:59,Y,,20230520,20230930,127.010145,37.553152,200896.4134,550403.337
11140035,2023,1114064500,1,삼성경로당,서울특별시 중구 청구로1길 23,서울특별시 중구 신당동 843,240,40,4,3,Y,Y,N,2023.7.31 13:59,2023.7.31 13:59,Y,,20230520,20230930,127.017887,37.558145,201580.421,550957.6359
11140036,2023,1114064500,1,대양경로당,서울특별시 중구 동호로10길 30,서울특별시 중구 신당동 842,96,30,4,3,Y,Y,N,2023.7.31 13:59,2023.7.31 13:59,Y,,20230520,20230930,127.014755,37.554853,201303.7182,550592.2483
11140037,2023,1114064500,1,청송경로당,서울특별시 중구 청구로1길 23,서울특별시 중구 신당동 843-1,84,30,3,1,Y,Y,N,2023.7.31 13:59,2023.7.31 13:59,Y,,20230520,20230930,127.018088,37.559537,201598.1333,551112.1015
11140038,2023,1114064500,5,청구동주민센터,서울특별시 중구 청구로3길 55,서울특별시 중구 신당동 333-17,50,20,2,2,Y,Y,N,2023.7.31 13:59,2023.7.31 13:59,Y,,20230520,20230930,127.014679,37.557102,201297.0169,550841.8594
11140039,2023,1114064500,1,청구경로당,서울특별시 중구 청구로3길 69,서울특별시 중구 신당동 333-36,131,50,2,2,Y,Y,N,2023.7.31 13:59,2023.7.31 13:59,Y,,20230520,20230930,127.014373,37.556536,201269.9889,550779.0138
11140040,2023,1114064500,1,약수하이츠경로당,서울특별시 중구 동호로10길 30,서울특별시 중구 신당동 842,216,50,4,2,Y,Y,N,2023.7.31 13:59,2023.7.31 13:59,Y,,20230520,20230930,127.014694,37.554797,201298.3292,550585.9877
11140041,2023,1114065000,1,신당5동경로당,서울특별시 중구 다산로42길 53,서울특별시 중구 신당동 132-10,71,40,4,2,Y,Y,N,2023.7.31 13:59,2023.7.31 13:59,Y,,20230520,20230930,127.019215,37.56436,201697.609,551647.495
11140042,2023,1114065000,5,신당5동주민센터,서울특별시 중구 다산로44길 85,서울특별시 중구 신당동 150-7,251,30,4,4,Y,Y,N,2023.7.31 13:59,2023.7.31 13:59,Y,,20230520,20230930,127.021867,37.565117,201931.8923,551731.5532
11140043,2023,1114065000,2,유락종합사회복지관,서울특별시 중구 퇴계로 460,서울특별시 중구 신당동 160-2,76,30,0,2,Y,Y,N,2023.7.31 13:59,2023.7.31 13:59,Y,,20230520,20230930,127.022827,37.565132,202016.7331,551733.1605
11140044,2023,1114065000,1,유락경로당,서울특별시 중구 퇴계로90길 42,서울특별시 중구 신당동 155-10,71,40,2,2,Y,Y,N,2023.7.31 13:59,2023.7.31 13:59,Y,,20230520,20230930,127.02164,37.563445,201911.8623,551545.8986
1114000079,2023,1114066500,99,어울림도서관,서울특별시 중구 다산로38길 66-35 ,서울특별시 중구 신당동 52-164,299,74,0,6,Y,Y,N,2023.7.31 13:59,2023.7.31 13:59,Y,,20230522,20230930,127.018966,37.561707,201675.7136,551352.9722
11140045,2023,1114066500,1,동화경로당,서울특별시 중구 청구로 64,서울특별시 중구 신당동 852,105,30,3,3,Y,Y,N,2023.7.31 13:59,2023.7.31 13:59,Y,,20230520,20230930,127.016691,37.560489,201474.7354,551217.806
11140046,2023,1114066500,1,파라다이스경로당,서울특별시 중구 다산로42나길 46,서울특별시 중구 신당동 846,89,30,4,1,Y,Y,N,2023.7.31 13:59,2023.7.31 13:59,Y,,20230520,20230930,127.017345,37.562429,201532.4262,551433.0891
11140047,2023,1114066500,1,청구e편한세상경로당,서울특별시 중구 청구로 64,서울특별시 중구 신당동 852,128,50,5,3,Y,Y,N,2023.7.31 13:59,2023.7.31 13:59,Y,,20230520,20230930,127.016661,37.560401,201472.0776,551208.0274
11140048,2023,1114066500,1,현대아파트경로당,서울특별시 중구 다산로36길 109,서울특별시 중구 신당동 840,102,40,2,2,Y,Y,Y,2023.7.31 13:59,2023.7.31 13:59,Y,,20230520,20230930,127.021376,37.559954,201888.6523,551158.5222
11140049,2023,1114066500,1,푸르지오경로당,서울특별시 중구 다산로36길 110,서울특별시 중구 신당동 850,119,50,3,2,Y,Y,N,2023.7.31 13:59,2023.7.31 13:59,Y,,20230520,20230930,127.019527,37.559201,201725.2753,551074.9237
11140050,2023,1114066500,5,동화동주민센터,서울특별시 중구 다산로36길 100,서울특별시 중구 신당동 850,100,50,1,1,Y,Y,N,2023.7.31 13:59,2023.7.31 13:59,Y,,20230520,20230930,127.019399,37.559965,201713.9925,551159.6497
11140051,2023,1114066500,1,동화동구립경로당,서울특별시 중구 퇴계로80길 52,서울특별시 중구 신당동 50-12,138,70,6,4,Y,Y,N,2023.7.31 13:59,2023.7.31 13:59,Y,,20230520,20230930,127.017299,37.563237,201528.3632,551522.7558
11140052,2023,1114067000,1,롯데캐슬베네치아경로당,서울특별시 중구 청계천로 400,서울특별시 중구 황학동 2545,198,40,9,7,Y,Y,N,2023.7.31 13:59,2023.7.31 13:59,Y,,20230520,20230930,127.021235,37.570993,201875.9263,552383.6523
11140053,2023,1114067000,1,SH황학롯데캐슬경로당,서울특별시 중구 청계천로 400,서울특별시 중구 황학동 2545,264,30,12,7,Y,Y,N,2023.7.31 13:59,2023.7.31 13:59,Y,,20230520,20230930,127.021214,37.571025,201874.1057,552387.259
11140054,2023,1114067000,5,황학동주민센터,서울특별시 중구 난계로11길 52,서울특별시 중구 황학동 1010,330,30,2,6,Y,Y,N,2023.7.31 13:59,2023.7.31 13:59,Y,,20230520,20230930,127.021367,37.567438,201887.6683,551989.1025
11140055,2023,1114067000,1,황중경로당,서울특별시 중구 난계로11길 37,서울특별시 중구 황학동 2525,257,35,5,3,Y,Y,N,2023.7.31 13:59,2023.7.31 13:59,Y,,20230520,20230930,127.021776,37.566664,201923.8217,551903.1948
1114000084,2023,1114068000,99,손기정문화도서관,서울특별시 중구 손기정로 101,서울특별시 중구 만리동2가 6-1,2944,73,0,5,Y,Y,N,2023.7.31 13:59,2023.7.31 13:59,Y,,20230522,20230930,126.964559,37.555923,196868.4525,550711.5046
1114000081,2023,1114068000,99,손기정어린이도서관,서울특별시 중구 손기정로 101,서울특별시 중구 만리동2가 6-1,445,111,0,6,Y,Y,N,2023.7.31 13:59,2023.7.31 13:59,Y,,20230522,20230930,126.964756,37.555165,196885.8012,550627.3247
1114000064,2023,1114068000,1,중림경로당,서울특별시 중구 손기정로 101-5 ,서울특별시 중구 만리동1가 57-36,120,30,2,2,Y,Y,N,2023.7.31 13:59,2023.7.31 13:59,Y,,20230520,20230930,126.966,37.5568,196995.8137,550808.7609
11140056,2023,1114068000,1,충정경로당(임대),서울특별시 중구 중림로4길 41,서울특별시 중구 중림동 201,69,30,3,2,Y,Y,N,2023.7.31 13:59,2023.7.31 13:59,Y,,20230520,20230930,126.964644,37.55718,196875.9713,550851.025
11140057,2023,1114068000,2,중림종합사회복지관,서울특별시 중구 서소문로6길 16,서울특별시 중구 중림동 155-1,30,30,1,3,Y,Y,N,2023.7.31 13:59,2023.7.31 13:59,Y,,20230520,20230930,126.966071,37.559461,197002.176,551104.0537
11140058,2023,1114068000,1,서울역센트럴자이경로당,서울특별시 중구 만리재로 175,서울특별시 중구 만리동2가 37-2,254,100,2,6,Y,Y,N,2023.7.31 13:59,2023.7.31 13:59,Y,,20230520,20230930,126.962702,37.555061,196704.3133,550615.9075
11140059,2023,1114068000,1,삼성사이버경로당,서울특별시 중구 중림로 10,서울특별시 중구 중림동 200,227,70,7,2,Y,Y,N,2023.7.31 13:59,2023.7.31 13:59,Y,,20230520,20230930,126.965297,37.558214,196933.7733,550965.7652
11140060,2023,1114068000,5,중림동주민센터,서울특별시 중구 만리재로 175,서울특별시 중구 만리동2가 37-2,50,30,0,8,Y,Y,N,2023.7.31 13:59,2023.7.31 13:59,Y,,20230520,20230930,126.963957,37.554932,196815.2091,550601.5024
1117000127,2023,1117051000,1,후암미주아파트경로당,서울특별시 용산구 후암로 71-1 ,서울특별시 용산구 후암동 423-1,99,15,3,1,Y,Y,N,2023.7.31 13:59,2023.7.31 13:59,Y,,20230520,20230930,126.975768,37.55187,197858.7223,550261.3002
11170003,2023,1117051000,5,후암동주민센터,서울특별시 용산구 후암로 32-6 ,서울특별시 용산구 후암동 244-109,658,80,10,5,Y,Y,Y,2023.7.31 13:59,2023.7.31 13:59,Y,,20230520,20230930,126.978164,37.548691,198070.37,549908.4508
11170004,2023,1117051000,1,양짓말 경로당,서울특별시 용산구 후암로13가길 25,서울특별시 용산구 후암동 239-1,340,100,4,2,Y,Y,Y,2023.7.31 13:59,2023.7.31 13:59,Y,,20230520,20230930,126.976385,37.54813,197913.1741,549846.1802
11170005,2023,1117051000,1,활터골 경로당,서울특별시 용산구 신흥로20길 55,서울특별시 용산구 후암동 406-43,77,40,3,2,Y,Y,N,2023.7.31 13:59,2023.7.31 13:59,Y,,20230520,20230930,126.983983,37.547868,198584.5943,549816.9709
11170006,2023,1117051000,1,새말 경로당,서울특별시 용산구 두텁바위로58길 48,서울특별시 용산구 후암동 400-39,140,50,5,2,Y,Y,N,2023.7.31 13:59,2023.7.31 13:59,Y,,20230520,20230930,126.982937,37.548437,198492.1718,549880.1948
11170007,2023,1117052000,5,용산2가동주민센터,서울특별시 용산구 신흥로 90,서울특별시 용산구 용산동2가 11-13,392,100,4,2,Y,Y,Y,2023.7.31 13:59,2023.7.31 13:59,Y,,20230520,20230930,126.985461,37.545924,198715.1702,549601.2003
11170008,2023,1117052000,1,용암 경로당,서울특별시 용산구 신흥로3가길 21-7 ,서울특별시 용산구 용산동2가 5-66,314,90,5,6,Y,Y,N,2023.7.31 13:59,2023.7.31 13:59,Y,,20230520,20230930,126.984648,37.541004,198643.2352,549055.1958
11200194,2023,1120066000,1,뚝섬중앙하이츠빌(아)경로당,서울특별시 성동구 상원길 47,서울특별시 성동구 성수동1가 715,84,25,2,1,Y,Y,N,2023.7.31 13:59,2023.7.31 13:59,Y,,20230520,20230930,127.048084,37.547853,204249.1344,549816.2721
11200195,2023,1120066000,1,성수대우2차(아)경로당,서울특별시 성동구 성수동1가 상원6길  16   (성수동1가),서울특별시 성동구 성수동1가 709,64,20,1,1,Y,Y,N,2023.7.31 13:59,2023.7.31 13:59,Y,,20230520,20230930,127.050133,37.548393,204430.1705,549876.278
11200196,2023,1120066000,1,동아그린(아)경로당,서울특별시 성동구 상원길 76,서울특별시 성동구 성수동1가 708,50,15,1,1,Y,Y,N,2023.7.31 13:59,2023.7.31 13:59,Y,,20230520,20230930,127.047996,37.550889,204241.1858,550153.272
11200197,2023,1120066000,1,성수쌍용(아)경로당,서울특별시 성동구 상원길 63,서울특별시 성동구 성수동1가 706,139,29,5,1,Y,Y,N,2023.7.31 13:59,2023.7.31 13:59,Y,,20230520,20230930,127.047089,37.549493,204161.116,549998.2701
11200198,2023,1120066000,1,서울숲 경로당,서울특별시 성동구 왕십리로 101,서울특별시 성동구 성수동1가 685-739,149,45,3,1,Y,Y,N,2023.7.31 13:59,2023.7.31 13:59,Y,,20230520,20230930,127.0444,37.5469,203923.6329,549710.3627
11200199,2023,1120066000,1,상원 경로당,서울특별시 성동구 왕십리로16길 6,서울특별시 성동구 성수동1가 656-1740,100,30,1,1,Y,Y,N,2023.7.31 13:59,2023.7.31 13:59,Y,,20230520,20230930,127.045019,37.550061,203978.166,550061.266
11200200,2023,1120066000,1,성원 경로당,서울특별시 성동구 성수동1가 상원10길  21   (성수동1가),서울특별시 성동구 성수동1가 13-21,83,25,2,1,Y,Y,N,2023.7.31 13:59,2023.7.31 13:59,Y,,20230520,20230930,127.050043,37.550186,204422.1114,550075.2752
11200201,2023,1120066000,1,한양현대(아)경로당,서울특별시 성동구 상원1길 17,서울특별시 성동구 성수동1가 707,45,14,1,2,Y,Y,N,2023.7.31 13:59,2023.7.31 13:59,Y,,20230520,20230930,127.04797,37.545492,204239.194,549554.28
11200205,2023,1120067000,1,강변현대아파트 경로당,서울특별시 성동구 둘레11길 1,서울특별시 성동구 성수동2가 400,30,9,2,1,Y,Y,N,2023.7.31 13:59,2023.7.31 13:59,Y,,20230520,20230930,127.051019,37.536319,204509.1919,548536.2862
11200208,2023,1120067000,1,정안 경로당,서울특별시 성동구 뚝섬로17길 12,서울특별시 성동구 성수동2가 269-234,22,6,3,1,Y,Y,N,2023.7.31 13:59,2023.7.31 13:59,Y,,20230520,20230930,127.060004,37.538892,205303.1275,548822.2931
11200210,2023,1120067000,5,성수2가1동주민센터,서울특별시 성동구 뚝섬로 385-19 ,서울특별시 성동구 성수동2가 333-134,287,11,10,3,Y,Y,N,2023.7.31 13:59,2023.7.31 13:59,Y,,20230520,20230930,127.054065,37.539507,204778.2019,548890.2878
11200211,2023,1120067000,1,뚝섬실버문화센터경로당,서울특별시 성동구 성수이로 2,서울특별시 성동구 성수동2가 744-1,211,43,9,2,Y,Y,N,2023.7.31 13:59,2023.7.31 13:59,Y,,20230520,20230930,127.053643,37.535372,204741.1679,548431.2876
11200213,2023,1120067000,1,청구강변(아) 경로당,서울특별시 성동구 둘레15길 7,서울특별시 성동구 성수동2가 712,41,12,1,1,Y,Y,N,2023.7.31 13:59,2023.7.31 13:59,Y,,20230520,20230930,127.0546,37.5355,204825.7428,548445.576
11200214,2023,1120067000,1,한강한신(아)경로당,서울특별시 성동구 성수이로 3,서울특별시 성동구 성수동2가 442,68,20,2,1,Y,Y,N,2023.7.31 13:59,2023.7.31 13:59,Y,,20230520,20230930,127.05267,37.535841,204655.1413,548483.2923
11200215,2023,1120067000,1,강변임광(아)경로당,서울특별시 성동구 성수동2가 둘레19길  5-1  (성수동2가),서울특별시 성동구 성수동2가 609-2,80,24,2,2,Y,Y,N,2023.7.31 13:59,2023.7.31 13:59,Y,,20230520,20230930,127.056981,37.535235,205036.2019,548416.3002
11200216,2023,1120067000,1,두산위브(아)경로당,서울특별시 성동구 뚝섬로 434,서울특별시 성동구 성수동2가 838,83,25,2,1,Y,Y,N,2023.7.31 13:59,2023.7.31 13:59,Y,,20230520,20230930,127.058419,37.537217,205163.1613,548636.3004
11200217,2023,1120067000,1,신성노바빌(아) 경로당,서울특별시 성동구 뚝섬로13길 11,서울특별시 성동구 성수동2가 833,29,8,2,1,Y,Y,N,2023.7.31 13:59,2023.7.31 13:59,Y,,20230520,20230930,127.057267,37.539253,205061.2081,548862.2977
11200218,2023,1120069000,1,성실경로당,서울특별시 성동구 광나루로 240-17 ,서울특별시 성동구 성수동2가 289-181,50,15,3,1,Y,Y,N,2023.7.31 13:59,2023.7.31 13:59,Y,,20230520,20230930,127.056247,37.548852,204970.4064,549927.5382
11200220,2023,1120069000,1,성삼 경로당,서울특별시 성동구 성수동2가 광나루로2길  35   (성수동2가),서울특별시 성동구 성수동2가 299-240,151,32,3,4,Y,Y,N,2023.7.31 13:59,2023.7.31 13:59,Y,,20230520,20230930,127.055225,37.548188,204880.1555,549853.822
11200221,2023,1120069000,1,경동할머니경로당,서울특별시 성동구 연무장1길 18,서울특별시 성동구 성수동2가 301-27,39,7,1,1,Y,Y,N,2023.7.31 13:59,2023.7.31 13:59,Y,,20230520,20230930,127.0505,37.5447,204462.8218,549466.4613
11200222,2023,1120069000,1,경동 경로당,서울특별시 성동구 연무장길 9-8 ,서울특별시 성동구 성수동2가 301-27,50,15,3,1,Y,Y,N,2023.7.31 13:59,2023.7.31 13:59,Y,,20230520,20230930,127.050538,37.544527,204466.1903,549447.2844
11200223,2023,1120069000,5,성수2가3동주민센터,서울특별시 성동구 광나루로2길 35,서울특별시 성동구 성수동2가 299-240,896,12,3,4,Y,Y,N,2023.7.31 13:59,2023.7.31 13:59,Y,,20230520,20230930,127.055112,37.548228,204870.1672,549858.2889
11200224,2023,1120069000,1,금호2차(아)경로당,서울특별시 성동구 연무장길 31,서울특별시 성동구 성수동2가 832,66,20,3,1,Y,Y,N,2023.7.31 13:59,2023.7.31 13:59,Y,,20230520,20230930,127.053117,37.543571,204694.164,549341.2835
11200225,2023,1120069000,1,성수1차대우(아)경로당,서울특별시 성동구 동일로 143,서울특별시 성동구 성수동2가 279-50,66,20,2,2,Y,Y,N,2023.7.31 13:59,2023.7.31 13:59,Y,,20230520,20230930,127.065283,37.545367,205769.1843,549541.2947
11200228,2023,1120069000,1,성수2차 우방(아)경로당,서울특별시 성동구 성수일로10길 3,서울특별시 성동구 성수동2가 286,130,35,2,1,Y,Y,N,2023.7.31 13:59,2023.7.31 13:59,Y,,20230520,20230930,127.052147,37.548545,204608.135,549893.2783
11200229,2023,1120069000,1,성수아이파크(아)경로당,서울특별시 성동구 성수이로 137,서울특별시 성동구 성수동2가 834,128,35,4,2,Y,Y,N,2023.7.31 13:59,2023.7.31 13:59,Y,,20230520,20230930,127.057193,37.547101,205054.1383,549733.2932
11200230,2023,1120069000,1,성수롯데캐슬파크(아)경로당,서울특별시 성동구  성수일로8길  47,서울특별시 성동구 성수동2가 835,67,20,3,1,Y,Y,N,2023.7.31 13:59,2023.7.31 13:59,Y,,20230520,20230930,127.055936,37.54603,204943.1281,549614.2917
11200231,2023,1120069000,1,금강아미움경로당,서울특별시 성동구 아차산로9길 34,서울특별시 성동구 성수동2가 836,66,20,2,1,Y,Y,N,2023.7.31 13:59,2023.7.31 13:59,Y,,20230520,20230930,127.060044,37.546568,205306.1186,549674.2937
11170009,2023,1117052000,1,용산2가 경로당,서울특별시 용산구 신흥로16길 18,서울특별시 용산구 용산동2가 25,152,75,4,2,Y,Y,N,2023.7.31 13:59,2023.7.31 13:59,Y,,20230520,20230930,126.987555,37.544843,198900.2038,549481.1958
11170010,2023,1117052000,1,신흥경로당,서울특별시 용산구 신흥로25가길 2,서울특별시 용산구 용산동2가 1-136,132,60,2,4,Y,Y,N,2023.7.31 13:59,2023.7.31 13:59,Y,,20230520,20230930,126.983244,37.5445,198519.223,549443.1972
11170011,2023,1117053000,5,남영동주민센터,서울특별시 용산구 두텁바위로 25,서울특별시 용산구 갈월동 51-19,264,66,5,3,Y,Y,N,2023.7.31 13:59,2023.7.31 13:59,Y,,20230520,20230930,126.97481,37.545746,197773.9138,549581.6766
11170012,2023,1117053000,1,갈월 경로당,서울특별시 용산구 두텁바위로1길 13,서울특별시 용산구 갈월동 23-1,167,41,3,1,Y,Y,N,2023.7.31 13:59,2023.7.31 13:59,Y,,20230520,20230930,126.973104,37.545653,197623.1579,549571.341
11170013,2023,1117053000,1,남영 경로당,서울특별시 용산구 한강대로72길 21-15 ,서울특별시 용산구 남영동 108-3,136,40,3,2,Y,Y,N,2023.7.31 13:59,2023.7.31 13:59,Y,,20230520,20230930,126.974352,37.541312,197733.2966,549089.5008
11170014,2023,1117052000,1,동자 경로당,서울특별시 용산구 한강대로104길 30-4 ,서울특별시 용산구 동자동 24-11,198,40,4,2,Y,Y,N,2023.7.31 13:59,2023.7.31 13:59,Y,,20230520,20230930,126.973892,37.550091,197692.9669,550063.908
11170015,2023,1117053000,2,갈월종합사회복지관,서울특별시 용산구 두텁바위로 25,서울특별시 용산구 갈월동 51-19,115,17,1,1,Y,Y,N,2023.7.31 13:59,2023.7.31 13:59,Y,,20230520,20230930,126.974786,37.54578,197771.7939,549585.3841
11170016,2023,1117055500,5,청파동주민센터,서울특별시 용산구 청파로49길 6,서울특별시 용산구 청파동2가 91-1,2136,50,0,1,Y,Y,Y,2023.7.31 13:59,2023.7.31 13:59,Y,,20230520,20230930,126.969981,37.545326,197347.1619,549535.1759
11170017,2023,1117055500,2,구립청파노인복지센터,서울특별시 용산구 청파로83길 26,서울특별시 용산구 서계동 33-49,290,50,2,1,Y,Y,N,2023.7.31 13:59,2023.7.31 13:59,N,미운영기간 2023. 7월~8월 구립청파노인복지센터 공사 ,20230520,20230930,126.967693,37.551975,197145.2204,550273.1685
11170018,2023,1117055500,1,청파2동 경로당,서울특별시 용산구 청파로49길 34,서울특별시 용산구 청파동2가 35-20,203,30,3,1,Y,Y,Y,2023.7.31 13:59,2023.7.31 13:59,Y,,20230520,20230930,126.968465,37.545461,197213.195,549550.1698
11170019,2023,1117055500,1,서계제1경로당,서울특별시 용산구 효창원로104길 7,서울특별시 용산구 서계동 259-2,55,20,5,2,Y,Y,Y,2023.7.31 13:59,2023.7.31 13:59,Y,,20230520,20230930,126.964219,37.550803,196838.1939,550143.1684
11170020,2023,1117055500,1,서계경로당,서울특별시 용산구 만리재로28길 5-22 ,서울특별시 용산구 서계동 238-49,299,50,4,2,Y,Y,N,2023.7.31 13:59,2023.7.31 13:59,Y,,20230520,20230930,126.96531,37.553157,196934.6618,550404.4203
11170021,2023,1117055500,1,청파1동 경로당,서울특별시 용산구 효창원로98길 19,서울특별시 용산구 청파동1가 3-59,38,15,6,2,Y,Y,N,2023.7.31 13:59,2023.7.31 13:59,Y,,20230520,20230930,126.9647,37.5495,196880.6435,549998.5905
1117000131,2023,1117056000,99,용산꿈나무종합타운,서울특별시 용산구 백범로 329,서울특별시 용산구 원효로1가 25,30,10,0,1,Y,Y,N,2023.7.31 13:59,2023.7.31 13:59,Y,,20230520,20230930,126.965297,37.538778,196932.9682,548808.5478
11170022,2023,1117056000,1,원효1동 경로당,서울특별시 용산구 백범로 329,서울특별시 용산구 원효로1가 25,100,25,6,2,Y,Y,Y,2023.7.31 13:59,2023.7.31 13:59,Y,,20230520,20230930,126.965481,37.538649,196949.216,548794.18
11170023,2023,1117056000,1,효원 경로당,서울특별시 용산구 원효로97길 3-30 ,서울특별시 용산구 원효로1가 108-38,75,20,7,2,Y,Y,N,2023.7.31 13:59,2023.7.31 13:59,Y,,20230520,20230930,126.969678,37.541172,197320.2365,549074.1742
11170024,2023,1117056000,1,원일 경로당,서울특별시 용산구 원효로67길 13,서울특별시 용산구 원효로2가 8-4,114,30,5,2,Y,Y,N,2023.7.31 13:59,2023.7.31 13:59,Y,,20230520,20230930,126.963864,37.537558,196806.2592,548673.1793
11170025,2023,1117056000,1,신계 경로당,서울특별시 용산구 새창로45가길 28,서울특별시 용산구 신계동 53,83,21,7,4,Y,Y,N,2023.7.31 13:59,2023.7.31 13:59,Y,,20230520,20230930,126.966227,37.534853,197014.9695,548372.9021
11170026,2023,1117056000,5,원효로1동주민센터,서울특별시 용산구 백범로 350,서울특별시 용산구 문배동 19-2,400,80,8,3,Y,Y,Y,2023.7.31 13:59,2023.7.31 13:59,Y,,20230520,20230930,126.967686,37.537251,197144.0579,548639.0386
11170027,2023,1117056000,1,KCC월츠타워 경로당,서울특별시 용산구 백범로90길 90,서울특별시 용산구 문배동 11-10,50,50,2,2,Y,Y,N,2023.7.31 13:59,2023.7.31 13:59,Y,,20230520,20230930,126.96882,37.537696,197244.2635,548688.3167
11170028,2023,1117056000,1,CJ나인파크경로당,서울특별시 용산구 백범로90다길 12,서울특별시 용산구 문배동 24-6,45,30,2,2,Y,Y,N,2023.7.31 13:59,2023.7.31 13:59,Y,,20230520,20230930,126.969216,37.536345,197279.231,548538.4384
11170029,2023,1117057000,1,청심 경로당,서울특별시 용산구 효창원로 6,서울특별시 용산구 원효로4가 136-1,132,20,5,2,Y,Y,N,2023.7.31 13:59,2023.7.31 13:59,Y,,20230520,20230930,126.950617,37.533823,195635.2565,548259.1614
11170030,2023,1117057000,1,원효로 경로당,서울특별시 용산구 원효로41가길 14-19 ,서울특별시 용산구 원효로3가 1-139,75,20,4,2,Y,Y,N,2023.7.31 13:59,2023.7.31 13:59,Y,,20230520,20230930,126.956884,37.534798,196189.2184,548367.1686
11170031,2023,1117057000,1,산천 경로당,서울특별시 용산구 새창로8길 157,서울특별시 용산구 산천동 204,132,10,6,1,Y,Y,N,2023.7.31 13:59,2023.7.31 13:59,Y,,20230520,20230930,126.950481,37.5359,195623.384,548489.7114
11170032,2023,1117057000,1,삼성리버힐아파트 경로당,서울특별시 용산구 효창원로 17,서울특별시 용산구 산천동 193,139,20,4,2,Y,Y,N,2023.7.31 13:59,2023.7.31 13:59,Y,,20230520,20230930,126.949874,37.53433,195569.5719,548315.4892
11170033,2023,1117057000,1,세방 경로당,서울특별시 용산구 효창원로15길 16,서울특별시 용산구 신창동 102,36,6,1,1,Y,Y,N,2023.7.31 13:59,2023.7.31 13:59,Y,,20230520,20230930,126.954402,37.536386,195969.9161,548543.5095
11170034,2023,1117057000,5,원효2동주민센터,서울특별시 용산구 효창원로8길 3,서울특별시 용산구 산천동 81-1,998,20,10,5,Y,Y,Y,2023.7.31 13:59,2023.7.31 13:59,Y,,20230520,20230930,126.951495,37.534384,195712.9088,548321.3962
11170035,2023,1117057000,1,리버힐삼성임대아파트 경로당,서울특별시 용산구 효창원로13길 7,서울특별시 용산구 산천동 194,129,20,2,3,Y,Y,N,2023.7.31 13:59,2023.7.31 13:59,Y,,20230520,20230930,126.952099,37.535653,195766.3386,548462.2567
11170002,2023,1117011900,99,(사)대한노인회 용산구지회,서울특별시 용산구 임정로 58,서울특별시 용산구 효창동 255,26,20,1,1,Y,Y,N,2023.7.31 13:59,2023.7.31 13:59,Y,,20230520,20230930,126.958105,37.544497,196297.5712,549443.5683
11170036,2023,1117058000,1,효창동제1경로당,서울특별시 용산구 임정로11길 9,서울특별시 용산구 효창동 5-712,130,32,4,2,Y,Y,Y,2023.7.31 13:59,2023.7.31 13:59,Y,,20230520,20230930,126.958538,37.542809,196335.7894,549256.1372
11170037,2023,1117058000,1,효창파크푸르지오아파트 경로당,서울특별시 용산구 백범로 260,서울특별시 용산구 효창동 274,55,13,2,1,Y,Y,N,2023.7.31 13:59,2023.7.31 13:59,Y,,20230520,20230930,126.958336,37.540245,196317.8558,548971.6722
11170038,2023,1117058000,5,효창동주민센터,서울특별시 용산구 효창원로 161,서울특별시 용산구 효창동 255-5,144,36,10,1,Y,Y,Y,2023.7.31 13:59,2023.7.31 13:59,Y,,20230520,20230930,126.961851,37.542468,196628.5337,549218.2108
11170039,2023,1117058000,2,효창종합사회복지관,서울특별시 용산구 효창원로 146-12 ,서울특별시 용산구 효창동 5-65,49,10,2,1,Y,Y,N,2023.7.31 13:59,2023.7.31 13:59,Y,,20230520,20230930,126.962956,37.541234,196726.1699,549081.1683
11170040,2023,1117058000,1,효창제2경로당,서울특별시 용산구 효창원로 146-12 ,서울특별시 용산구 효창동 5-65,165,41,9,4,Y,Y,Y,2023.7.31 13:59,2023.7.31 13:59,Y,,20230520,20230930,126.962956,37.541234,196726.1699,549081.1683
11170041,2023,1117058000,1,효창한신아파트 경로당,서울특별시 용산구 백범로45길 9-11 ,서울특별시 용산구 효창동 5-145,69,17,2,1,Y,Y,N,2023.7.31 13:59,2023.7.31 13:59,Y,,20230520,20230930,126.957593,37.541895,196252.247,549154.7537
11170042,2023,1117058000,1,효창스위첸,서울특별시 용산구 백범로 275,서울특별시 용산구 효창동 286,92,25,3,1,Y,Y,N,2023.7.31 13:59,2023.7.31 13:59,Y,,20230520,20230930,126.960045,37.540245,196468.8849,548971.5622
11170043,2023,1117059000,1,도원삼성래미안 경로당,서울특별시 용산구 새창로 70,서울특별시 용산구 도원동 23,228,60,3,2,Y,Y,N,2023.7.31 13:59,2023.7.31 13:59,Y,,20230520,20230930,126.955856,37.538385,196098.5373,548765.2683
11170044,2023,1117059000,1,도원삼성아파트제2 경로당,서울특별시 용산구 새창로8길 7,서울특별시 용산구 도원동 25,103,30,4,2,Y,Y,N,2023.7.31 13:59,2023.7.31 13:59,Y,,20230520,20230930,126.956037,37.539498,196114.583,548888.768
11170045,2023,1117059000,1,중앙 경로당,서울특별시 용산구 새창로 102,서울특별시 용산구 용문동 32-29,50,20,2,1,Y,Y,N,2023.7.31 13:59,2023.7.31 13:59,Y,,20230520,20230930,126.9596,37.5385,196429.447,548777.9053
11170046,2023,1117059000,1,송학당 경로당,서울특별시 용산구 효창원로37라길 11,서울특별시 용산구 용문동 38-206,163,50,4,2,Y,Y,Y,2023.7.31 13:59,2023.7.31 13:59,Y,,20230520,20230930,126.958175,37.537888,196303.4664,548710.0359
11170047,2023,1117059000,5,용문동주민센터,서울특별시 용산구 새창로12길 13,서울특별시 용산구 도원동 4-5,3989,20,7,4,Y,Y,Y,2023.7.31 13:59,2023.7.31 13:59,Y,,20230520,20230930,126.957532,37.538942,196246.7346,548827.0203
11170048,2023,1117059000,1,브라운스톤용산 경로당,서울특별시 용산구 효창원로 88,서울특별시 용산구 용문동 90,90,20,2,1,Y,Y,N,2023.7.31 13:59,2023.7.31 13:59,Y,,20230520,20230930,126.959512,37.536255,196421.5622,548528.6857
1117000130,2023,1117062500,1,파크타워경로당,서울특별시 용산구 서빙고로 67,서울특별시 용산구 용산동5가 24,65,30,2,2,Y,Y,N,2023.7.31 13:59,2023.7.31 13:59,Y,,20230520,20230930,126.970358,37.524843,197379.7174,547261.782
11170050,2023,1117062500,1,삼오 경로당,서울특별시 용산구 한강대로 60,서울특별시 용산구 한강로3가 44-6,97,24,2,2,Y,Y,N,2023.7.31 13:59,2023.7.31 13:59,Y,,20230520,20230930,126.965216,37.52598,196925.2753,547388.186
11170051,2023,1117062500,1,한강로3가 경로당,서울특별시 용산구 한강대로7길 17-16 ,서울특별시 용산구 한강로3가 40-1007,106,26,3,2,Y,Y,N,2023.7.31 13:59,2023.7.31 13:59,Y,,20230520,20230930,126.961235,37.52397,196573.2836,547165.1831
11170052,2023,1117062500,1,한강로2가 경로당,서울특별시 용산구 서빙고로20길 19,서울특별시 용산구 한강로3가 65-392,105,46,2,1,Y,Y,N,2023.7.31 13:59,2023.7.31 13:59,Y,,20230520,20230930,126.967739,37.523585,197148.2042,547122.1915
11170053,2023,1117062500,5,한강로동주민센터,서울특별시 용산구 한강대로38길 28,서울특별시 용산구 한강로2가 187-3,282,70,10,1,Y,Y,Y,2023.7.31 13:59,2023.7.31 13:59,Y,,20230520,20230930,126.969027,37.528063,197262.224,547619.1887
11170054,2023,1117062500,1,삼각지 경로당,서울특별시 용산구 이태원로2길 5,서울특별시 용산구 용산동3가 1-6,66,46,3,2,Y,Y,N,2023.7.31 13:59,2023.7.31 13:59,Y,,20230520,20230930,126.975315,37.534696,197818.2283,548355.1941
11170055,2023,1117062500,1,한마음 경로당,서울특별시 용산구 한강대로38길 38,서울특별시 용산구 용산동5가 2-4,69,21,2,1,Y,Y,N,2023.7.31 13:59,2023.7.31 13:59,Y,,20230520,20230930,126.96966,37.528541,197318.1934,547672.1892
11170056,2023,1117062500,1,용산파크이편한세상경로당,서울특별시 용산구 한강대로53길 16,서울특별시 용산구 한강로2가 417,54,34,2,2,Y,Y,N,2023.7.31 13:59,2023.7.31 13:59,Y,,20230520,20230930,126.970914,37.533956,197429.2226,548273.1855
11170057,2023,1117062500,1,파크자이 경로당,서울특별시 용산구 한강대로 205,서울특별시 용산구 한강로1가 50-1,69,44,2,2,Y,Y,N,2023.7.31 13:59,2023.7.31 13:59,Y,,20230520,20230930,126.973289,37.536425,197639.2157,548547.1852
11170058,2023,1117063000,1,한강맨션아파트 경로당,서울특별시 용산구 이촌로 248,서울특별시 용산구 이촌동 300-23,177,20,3,2,Y,Y,N,2023.7.31 13:59,2023.7.31 13:59,Y,,20230520,20230930,126.975286,37.519226,197815.214,546638.1952
11170059,2023,1117063000,1,삼성리버스위트아파트 경로당,서울특별시 용산구 이촌로88길 30,서울특별시 용산구 이촌동 426,49,10,2,1,Y,Y,N,2023.7.31 13:59,2023.7.31 13:59,Y,,20230520,20230930,126.97591,37.516886,197870.3373,546378.5148
